City_ID,City,Lat,Lng,Max Temp,Humidity,Cloudiness,Wind Speed,Country,Date
0,vaini,-21.2,-175.2,25.09,83,75,1.54,TO,2023-03-06 17:47:09
1,taoudenni,22.6783,-3.9836,30.9,8,1,1.66,ML,2023-03-06 17:47:09
2,mar del plata,-38.0023,-57.5575,34.01,71,0,6.69,AR,2023-03-06 17:45:48
3,andenes,69.3143,16.1194,-6.01,53,40,0.0,NO,2023-03-06 17:47:10
4,chokurdakh,70.6333,147.9167,-44.3,100,81,1.04,RU,2023-03-06 17:47:10
5,sorland,67.667,12.6934,-6.08,57,100,9.59,NO,2023-03-06 17:47:10
6,poso,-1.3959,120.7524,24.84,82,100,1.67,ID,2023-03-06 17:47:10
7,east london,-33.0153,27.9116,20.52,88,0,7.2,ZA,2023-03-06 17:44:15
8,ushuaia,-54.8,-68.3,11.81,47,75,4.12,AR,2023-03-06 17:44:21
9,mataura,-46.1927,168.8643,6.34,98,64,1.37,NZ,2023-03-06 17:47:11
10,bluff,-46.6,168.3333,10.37,87,65,4.32,NZ,2023-03-06 17:47:11
11,albany,42.6001,-73.9662,5.88,52,56,5.91,US,2023-03-06 17:47:11
12,provideniya,64.3833,-173.3,-3.68,97,100,1.88,RU,2023-03-06 17:47:11
13,hermanus,-34.4187,19.2345,18.22,79,75,6.63,ZA,2023-03-06 17:47:11
14,saint-philippe,-21.3585,55.7679,26.77,90,100,3.94,RE,2023-03-06 17:47:11
15,yashan,22.1975,109.9419,17.49,79,0,1.68,CN,2023-03-06 17:47:12
16,jamestown,42.097,-79.2353,5.01,84,100,2.68,US,2023-03-06 17:47:12
17,port hedland,-20.3167,118.5667,29.03,58,75,7.72,AU,2023-03-06 17:47:12
18,lebu,-37.6167,-73.65,18.58,76,23,5.19,CL,2023-03-06 17:47:12
19,puerto baquerizo moreno,-0.9,-89.6,28.55,74,75,1.54,EC,2023-03-06 17:47:12
20,busselton,-33.65,115.3333,13.47,79,0,5.89,AU,2023-03-06 17:47:12
21,winneba,5.3511,-0.6231,27.55,81,94,7.31,GH,2023-03-06 17:47:13
22,eldorado,-23.7869,-54.2836,29.07,58,0,2.74,BR,2023-03-06 17:47:13
23,havre-saint-pierre,50.2334,-63.5986,0.2,69,75,2.57,CA,2023-03-06 17:47:13
24,poum,-20.2333,164.0167,26.18,76,22,5.95,NC,2023-03-06 17:47:13
25,thinadhoo,0.5333,72.9333,27.91,68,3,2.17,MV,2023-03-06 17:47:13
26,hirara,24.8,125.2833,18.89,52,0,6.09,JP,2023-03-06 17:47:13
27,yeppoon,-23.1333,150.7333,21.88,83,46,2.42,AU,2023-03-06 17:47:14
28,rikitea,-23.1203,-134.9692,26.89,78,100,9.96,PF,2023-03-06 17:47:14
29,sao joao da barra,-21.6403,-41.0511,33.05,78,97,6.48,BR,2023-03-06 17:47:14
30,new norfolk,-42.7826,147.0587,15.72,66,100,1.34,AU,2023-03-06 17:47:14
31,havelock,34.8791,-76.9013,21.99,32,20,2.24,US,2023-03-06 17:47:14
32,cherskiy,68.75,161.3,-38.67,98,29,1.54,RU,2023-03-06 17:47:15
33,linxia,35.6003,103.2064,6.38,40,53,0.98,CN,2023-03-06 17:47:15
34,dalbandin,28.8947,64.4101,22.92,24,47,2.09,PK,2023-03-06 17:47:15
35,svetlogorsk,52.6333,29.7333,-1.92,68,63,3.24,BY,2023-03-06 17:47:15
36,ferme-neuve,46.7001,-75.4493,-0.88,84,33,5.16,CA,2023-03-06 17:47:15
37,aksu,41.1231,80.2644,9.3,40,46,0.52,CN,2023-03-06 17:47:15
38,qaanaaq,77.484,-69.3632,-8.52,91,92,1.2,GL,2023-03-06 17:47:15
39,salur,18.5333,83.2167,23.09,46,5,0.67,IN,2023-03-06 17:47:16
40,kirkland lake,48.1446,-80.0377,0.16,43,100,3.6,CA,2023-03-06 17:47:16
41,long xuyen,10.3833,105.4167,22.97,79,96,1.88,VN,2023-03-06 17:47:16
42,kaffrine,14.1059,-15.5508,37.38,10,100,1.62,SN,2023-03-06 17:47:16
43,avarua,-21.2078,-159.775,28.03,89,40,7.72,CK,2023-03-06 17:47:17
44,shu,43.5983,73.7614,8.94,88,39,5.93,KZ,2023-03-06 17:47:17
45,hithadhoo,-0.6,73.0833,27.85,67,7,0.58,MV,2023-03-06 17:47:17
46,nome,64.5011,-165.4064,0.09,100,100,7.72,US,2023-03-06 17:47:17
47,bredasdorp,-34.5322,20.0403,18.05,73,92,4.57,ZA,2023-03-06 17:47:17
48,carnarvon,-24.8667,113.6333,25.04,69,0,9.85,AU,2023-03-06 17:47:17
49,punta arenas,-53.15,-70.9167,14.06,44,40,10.8,CL,2023-03-06 17:42:45
50,pangkalanbuun,-2.6833,111.6167,22.64,97,100,1.09,ID,2023-03-06 17:47:17
51,ruston,32.5232,-92.6379,23.66,94,100,4.12,US,2023-03-06 17:47:18
52,saint-joseph,-21.3667,55.6167,26.21,87,100,3.95,RE,2023-03-06 17:47:18
53,kapaa,22.0752,-159.319,20.99,93,100,4.47,US,2023-03-06 17:47:18
54,tiksi,71.6872,128.8694,-23.37,97,100,1.95,RU,2023-03-06 17:47:18
55,alekseyevka,50.6309,38.6903,-0.32,65,97,0.97,RU,2023-03-06 17:47:18
56,klaksvik,62.2266,-6.589,-0.49,58,100,13.95,FO,2023-03-06 17:47:18
57,faanui,-16.4833,-151.75,24.72,86,100,5.85,PF,2023-03-06 17:47:19
58,hobart,-42.8794,147.3294,15.92,62,40,8.75,AU,2023-03-06 17:47:19
59,ahipara,-35.1667,173.1667,15.2,91,6,1.01,NZ,2023-03-06 17:47:19
60,panguna,-6.3164,155.4848,20.11,92,97,0.23,PG,2023-03-06 17:47:19
61,astoria,46.1879,-123.8313,6.35,79,75,3.6,US,2023-03-06 17:47:19
62,severo-kurilsk,50.6789,156.125,-0.9,90,98,4.95,RU,2023-03-06 17:47:19
63,dikson,73.5069,80.5464,-23.23,98,100,3.63,RU,2023-03-06 17:47:19
64,bambous virieux,-20.3428,57.7575,26.14,83,75,2.06,MU,2023-03-06 17:47:20
65,cape town,-33.9258,18.4232,20.62,77,20,9.26,ZA,2023-03-06 17:35:06
66,upernavik,72.7868,-56.1549,-6.77,84,42,1.91,GL,2023-03-06 17:47:20
67,alegrete,-29.7831,-55.7919,31.51,28,0,4.81,BR,2023-03-06 17:47:20
68,butaritari,3.0707,172.7902,26.92,75,53,4.11,KI,2023-03-06 17:47:20
69,hobyo,5.3505,48.5268,25.91,75,16,7.36,SO,2023-03-06 17:47:20
70,pevek,69.7008,170.3133,-36.86,98,35,2.23,RU,2023-03-06 17:47:21
71,bethel,41.3712,-73.414,10.2,36,0,5.14,US,2023-03-06 17:47:21
72,saldanha,-33.0117,17.9442,22.03,75,62,9.88,ZA,2023-03-06 17:47:21
73,ilulissat,69.2167,-51.1,0.01,64,0,0.0,GL,2023-03-06 17:47:21
74,thompson,55.7435,-97.8558,-20.91,65,20,2.06,CA,2023-03-06 17:47:21
75,cayenne,4.9333,-52.3333,29.02,70,75,6.69,GF,2023-03-06 17:47:21
76,barrow,71.2906,-156.7887,-10.99,92,40,7.2,US,2023-03-06 17:47:21
77,port elizabeth,-33.918,25.5701,19.16,96,75,4.12,ZA,2023-03-06 17:45:03
78,lompoc,34.6391,-120.4579,12.56,84,75,3.09,US,2023-03-06 17:47:22
79,alofi,-19.0595,-169.9187,26.94,83,100,5.66,NU,2023-03-06 17:47:22
80,bathsheba,13.2167,-59.5167,29.34,65,40,7.2,BB,2023-03-06 17:47:22
81,avera,33.194,-82.5271,24.19,54,31,2.26,US,2023-03-06 17:47:22
82,namatanai,-3.6667,152.4333,25.57,85,100,1.19,PG,2023-03-06 17:47:22
83,yellowknife,62.456,-114.3525,-28.71,76,40,3.09,CA,2023-03-06 17:47:23
84,petropavlovsk-kamchatskiy,53.0452,158.6483,-11.67,85,40,3.0,RU,2023-03-06 17:46:03
85,ponta do sol,32.6667,-17.1,20.95,90,92,3.3,PT,2023-03-06 17:47:23
86,paramonga,-10.6667,-77.8333,24.69,70,100,3.29,PE,2023-03-06 17:47:23
87,seminole,28.7086,-81.2081,31.15,62,0,1.79,US,2023-03-06 17:47:23
88,la rioja,42.25,-2.5,7.88,85,99,1.53,ES,2023-03-06 17:47:23
89,acajutla,13.5928,-89.8275,30.46,54,30,5.09,SV,2023-03-06 17:47:24
90,adamovka,51.5223,59.9396,-1.14,98,90,1.83,RU,2023-03-06 17:47:24
91,kaniama,-7.5667,24.1833,22.61,79,82,2.28,CD,2023-03-06 17:47:24
92,tuatapere,-46.1333,167.6833,8.91,90,66,2.65,NZ,2023-03-06 17:47:24
93,kerema,-7.9631,145.7785,25.45,82,98,1.77,PG,2023-03-06 17:47:24
94,mahebourg,-20.4081,57.7,26.16,83,75,2.06,MU,2023-03-06 17:47:25
95,esperance,-33.8667,121.9,15.56,63,19,3.62,AU,2023-03-06 17:45:03
96,ambulu,-8.345,113.6058,24.34,90,95,0.68,ID,2023-03-06 17:47:25
97,norman wells,65.282,-126.8329,-29.98,76,75,1.54,CA,2023-03-06 17:47:25
98,lorengau,-2.0226,147.2712,26.57,80,98,3.33,PG,2023-03-06 17:47:25
99,pacific grove,36.6177,-121.9166,11.9,66,0,2.57,US,2023-03-06 17:47:25
100,mount gambier,-37.8333,140.7667,13.48,72,5,5.61,AU,2023-03-06 17:47:26
101,pemangkat,1.1667,108.9667,24.21,91,100,2.31,ID,2023-03-06 17:47:26
102,ternate,0.8,127.4,26.08,84,78,3.21,ID,2023-03-06 17:47:26
103,port alfred,-33.5906,26.891,20.1,91,13,2.68,ZA,2023-03-06 17:47:26
104,zell am see,47.3256,12.7944,4.44,71,100,1.08,AT,2023-03-06 17:47:26
105,verkhoyansk,67.5447,133.385,-31.12,100,94,0.87,RU,2023-03-06 17:47:26
106,faya,18.3851,42.4509,19.06,56,6,1.66,SA,2023-03-06 17:47:26
107,ouesso,1.6136,16.0517,27.87,49,99,1.51,CG,2023-03-06 17:47:27
108,kuruman,-27.4524,23.4325,23.88,27,0,2.13,ZA,2023-03-06 17:47:27
109,hilo,19.7297,-155.09,24.6,77,0,3.6,US,2023-03-06 17:47:27
110,chichester,50.8367,-0.78,7.78,90,100,1.34,GB,2023-03-06 17:38:08
111,prescott,34.54,-112.4685,12.03,31,60,6.26,US,2023-03-06 17:47:27
112,riyadh,24.6877,46.7219,27.08,19,2,5.02,SA,2023-03-06 17:36:37
113,agidel,55.9077,53.9355,-3.9,97,100,2.35,RU,2023-03-06 17:47:28
114,ventspils,57.3894,21.5606,-1.04,86,75,5.14,LV,2023-03-06 17:45:44
115,richards bay,-28.783,32.0377,23.59,90,100,1.78,ZA,2023-03-06 17:47:28
116,zhigansk,66.7697,123.3711,-30.6,100,84,3.44,RU,2023-03-06 17:47:28
117,kemin,42.7846,75.6892,7.09,92,100,3.2,KG,2023-03-06 17:47:28
118,wanaka,-44.7,169.15,7.74,80,52,1.62,NZ,2023-03-06 17:47:28
119,kuching,1.55,110.3333,25.57,96,20,0.0,MY,2023-03-06 17:47:28
120,atuona,-9.8,-139.0333,26.73,79,17,5.68,PF,2023-03-06 17:47:29
121,pisco,-13.7,-76.2167,26.12,69,0,5.14,PE,2023-03-06 17:47:29
122,grindavik,63.8424,-22.4338,-2.74,54,75,3.09,IS,2023-03-06 17:47:29
123,port saint lucie,27.2939,-80.3503,31.13,69,47,5.36,US,2023-03-06 17:47:29
124,zhicheng,30.2956,111.5047,17.54,73,100,2.63,CN,2023-03-06 17:47:29
125,tura,25.5198,90.2201,20.32,26,0,1.14,IN,2023-03-06 17:47:29
126,eenhana,-17.4667,16.3333,27.7,24,21,2.87,NA,2023-03-06 17:47:29
127,chuy,-33.6971,-53.4616,26.31,50,40,5.82,UY,2023-03-06 17:47:30
128,te anau,-45.4167,167.7167,8.58,91,75,1.05,NZ,2023-03-06 17:47:30
129,beloha,-25.1667,45.05,23.26,91,100,6.51,MG,2023-03-06 17:47:30
130,sobolevo,54.4299,31.8996,-8.1,87,49,3.6,RU,2023-03-06 17:47:30
131,carora,10.1755,-70.0827,34.37,32,87,4.43,VE,2023-03-06 17:47:30
132,coihaique,-45.5752,-72.0662,12.34,71,75,3.09,CL,2023-03-06 17:45:04
133,grants,35.1473,-107.8514,13.13,8,0,7.2,US,2023-03-06 17:47:31
134,nogliki,51.8333,143.1667,-18.08,100,69,0.72,RU,2023-03-06 17:47:31
135,ginir,7.1333,40.7,17.91,37,63,0.15,ET,2023-03-06 17:47:31
136,kawalu,-7.3817,108.2082,21.78,97,55,0.78,ID,2023-03-06 17:47:31
137,kulhudhuffushi,6.6221,73.07,27.45,75,65,6.33,MV,2023-03-06 17:47:31
138,sicamous,50.8331,-118.9856,1.77,68,67,0.52,CA,2023-03-06 17:47:31
139,dingle,10.9995,122.6711,22.86,90,11,4.15,PH,2023-03-06 17:47:32
140,airai,-8.9266,125.4092,14.79,91,92,0.71,TL,2023-03-06 17:47:32
141,beaverlodge,55.2166,-119.4361,-20.36,90,100,1.6,CA,2023-03-06 17:47:32
142,calamar,10.2511,-74.9146,35.76,38,56,2.37,CO,2023-03-06 17:47:32
143,kodiak,57.79,-152.4072,-6.27,93,0,3.6,US,2023-03-06 17:47:32
144,hami,42.8,93.45,8.51,33,3,0.8,CN,2023-03-06 17:47:32
145,korla,41.7597,86.1469,8.28,44,59,1.97,CN,2023-03-06 17:47:32
146,karratha,-20.7377,116.8463,29.21,73,15,3.33,AU,2023-03-06 17:47:33
147,cranbrook,49.4999,-115.7688,-7.09,63,75,1.54,CA,2023-03-06 17:47:33
148,georgetown,5.4112,100.3354,27.96,83,20,1.54,MY,2023-03-06 17:46:20
149,atar,20.5169,-13.0499,33.96,8,100,4.54,MR,2023-03-06 17:47:33
150,ribeira grande,38.5167,-28.7,17.22,94,75,12.07,PT,2023-03-06 17:47:33
151,tabou,4.423,-7.3528,28.01,78,89,5.01,CI,2023-03-06 17:47:33
152,torbay,47.6666,-52.7314,0.32,83,75,5.66,CA,2023-03-06 17:47:34
153,ossora,59.2353,163.0719,-13.01,87,100,2.56,RU,2023-03-06 17:47:34
154,hovd,48.0056,91.6419,-0.52,44,40,3.55,MN,2023-03-06 17:47:34
155,changji,44.0167,87.3167,3.44,75,54,2.0,CN,2023-03-06 17:47:34
156,rio grande,-32.035,-52.0986,25.06,76,100,6.91,BR,2023-03-06 17:47:34
157,tuktoyaktuk,69.4541,-133.0374,-33.0,75,20,2.06,CA,2023-03-06 17:47:34
158,hualmay,-11.0964,-77.6139,25.17,67,99,3.65,PE,2023-03-06 17:47:34
159,mareeba,-17.0,145.4333,22.47,94,100,1.16,AU,2023-03-06 17:47:35
160,les cayes,18.2,-73.75,28.19,58,33,5.57,HT,2023-03-06 17:47:35
161,khatanga,71.9667,102.5,-28.71,100,100,1.86,RU,2023-03-06 17:47:35
162,arraial do cabo,-22.9661,-42.0278,30.98,74,40,2.57,BR,2023-03-06 17:47:35
163,srednekolymsk,67.45,153.6833,-38.91,100,32,0.72,RU,2023-03-06 17:47:35
164,port-cartier,50.0334,-66.8654,7.06,92,67,6.42,CA,2023-03-06 17:47:35
165,hasaki,35.7333,140.8333,5.68,79,5,3.99,JP,2023-03-06 17:47:36
166,victoria,22.2855,114.1577,19.07,68,0,1.79,HK,2023-03-06 17:47:36
167,tutoia,-2.7619,-42.2744,28.38,75,85,5.45,BR,2023-03-06 17:47:36
168,gornopravdinsk,60.05,69.9,-4.12,95,100,3.95,RU,2023-03-06 17:47:36
169,constitucion,-35.3333,-72.4167,20.28,65,27,3.89,CL,2023-03-06 17:44:42
170,morlaix,48.5833,-4.0,7.26,81,100,3.09,FR,2023-03-06 17:47:37
171,nhulunbuy,-12.2333,136.7667,27.34,78,75,5.66,AU,2023-03-06 17:47:37
172,zalesovo,53.9939,84.7431,-1.79,90,100,6.54,RU,2023-03-06 17:47:37
173,north bend,43.4065,-124.2243,6.2,87,100,3.6,US,2023-03-06 17:47:37
174,flinders,-34.5833,150.8552,21.77,88,17,0.89,AU,2023-03-06 17:47:37
175,yulara,-25.2406,130.9889,21.92,28,0,6.88,AU,2023-03-06 17:47:37
176,grand-santi,4.25,-54.3833,28.63,75,90,1.83,GF,2023-03-06 17:47:37
177,acapulco,16.8634,-99.8901,29.18,54,13,3.26,MX,2023-03-06 17:47:38
178,bunia,1.5667,30.25,25.31,38,53,1.58,CD,2023-03-06 17:47:38
179,marzuq,14.4,46.4667,18.96,54,0,2.86,YE,2023-03-06 17:47:38
180,kruisfontein,-34.0033,24.7314,17.71,88,94,3.92,ZA,2023-03-06 17:47:38
181,oranjemund,-28.55,16.4333,16.94,91,6,8.19,NA,2023-03-06 17:47:38
182,beringovskiy,63.05,179.3167,-29.86,88,30,2.84,RU,2023-03-06 17:47:38
183,iqaluit,63.7506,-68.5145,-3.15,100,100,1.03,CA,2023-03-06 17:47:39
184,touros,-5.1989,-35.4608,28.21,70,100,6.89,BR,2023-03-06 17:47:39
185,westport,41.1415,-73.3579,11.16,31,0,6.69,US,2023-03-06 17:47:39
186,luau,-10.7073,22.2247,18.31,95,98,1.54,AO,2023-03-06 17:47:39
187,buta,2.7858,24.73,27.73,44,82,1.09,CD,2023-03-06 17:47:39
188,castro,-24.7911,-50.0119,23.64,75,12,2.7,BR,2023-03-06 17:47:39
189,xining,36.6167,101.7667,2.91,42,64,0.47,CN,2023-03-06 17:47:40
190,wangqing,43.3218,129.7634,1.45,86,2,0.2,CN,2023-03-06 17:47:40
191,husavik,66.0449,-17.3389,-5.95,68,100,4.81,IS,2023-03-06 17:47:40
192,bahir dar,11.5936,37.3908,19.07,70,100,4.61,ET,2023-03-06 17:47:40
193,baker city,44.7749,-117.8344,0.88,69,0,2.06,US,2023-03-06 17:47:40
194,sur,22.5667,59.5289,24.41,65,0,1.43,OM,2023-03-06 17:47:40
195,laguna,38.421,-121.4238,9.86,75,100,5.66,US,2023-03-06 17:47:40
196,kinablangan,7.6947,126.5503,24.81,87,98,4.31,PH,2023-03-06 17:47:41
197,saint-nazaire,47.2833,-2.2,7.99,61,0,3.6,FR,2023-03-06 17:47:41
198,leningradskiy,69.3833,178.4167,-33.92,99,49,2.05,RU,2023-03-06 17:47:41
199,codrington,-38.2667,141.9667,13.21,77,42,6.8,AU,2023-03-06 17:47:41
200,gravdal,68.1214,13.5031,-9.06,57,20,1.03,NO,2023-03-06 17:47:41
201,san andres,12.5847,-81.7006,30.01,62,20,7.72,CO,2023-03-06 17:47:42
202,vega de alatorre,20.0333,-96.6333,27.31,68,65,3.81,MX,2023-03-06 17:47:42
203,banamba,13.55,-7.45,36.2,7,89,3.31,ML,2023-03-06 17:47:42
204,port hardy,50.6996,-127.4199,4.0,93,75,0.0,CA,2023-03-06 17:47:42
205,kahului,20.8947,-156.47,25.47,81,40,6.69,US,2023-03-06 17:45:03
206,sosua,19.7667,-70.5167,31.99,74,40,7.72,DO,2023-03-06 17:47:42
207,jiutai,44.1525,125.8328,1.19,48,34,3.08,CN,2023-03-06 17:47:42
208,muli,2.9167,73.5667,27.83,74,83,5.16,MV,2023-03-06 17:46:42
209,wyszkow,52.5928,21.4584,2.28,98,100,1.86,PL,2023-03-06 17:47:43
210,port shepstone,-30.7414,30.455,23.07,85,99,5.01,ZA,2023-03-06 17:47:43
211,birao,10.2849,22.7882,33.53,11,41,2.44,CF,2023-03-06 17:47:43
212,wurzburg,49.7878,9.9361,3.89,78,100,3.27,DE,2023-03-06 17:45:00
213,bengkulu,-3.8004,102.2655,23.59,90,100,1.97,ID,2023-03-06 17:47:43
214,nizhniy tsasuchey,50.5167,115.1333,-6.22,75,100,4.21,RU,2023-03-06 17:47:43
215,yanam,16.7333,82.2167,21.44,81,24,0.82,IN,2023-03-06 17:47:44
216,yar-sale,66.8333,70.8333,-23.99,99,100,3.07,RU,2023-03-06 17:47:44
217,fukue,32.6881,128.8419,12.87,57,0,2.74,JP,2023-03-06 17:47:44
218,whitehorse,60.7161,-135.0538,-30.57,69,20,1.54,CA,2023-03-06 17:45:25
219,praya,14.9215,-23.5087,28.3,34,0,8.75,CV,2023-03-06 17:47:44
220,nyurba,63.2842,118.3319,-27.92,99,100,2.37,RU,2023-03-06 17:47:44
221,margate,51.3813,1.3862,7.17,85,100,1.79,GB,2023-03-06 17:47:44
222,ravar,31.2656,56.8055,18.89,22,0,1.33,IR,2023-03-06 17:47:45
223,adelaide,-34.9333,138.6,17.73,68,75,8.23,AU,2023-03-06 17:47:45
224,inirida,3.8653,-67.9239,25.9,88,100,1.19,CO,2023-03-06 17:47:45
225,lazaro cardenas,17.9583,-102.2,28.01,53,33,3.25,MX,2023-03-06 17:47:45
226,joao camara,-5.5375,-35.8197,29.28,56,94,6.84,BR,2023-03-06 17:47:45
227,komsomolskiy,40.4272,71.7189,10.4,71,100,3.09,UZ,2023-03-06 17:47:45
228,cabo san lucas,22.8909,-109.9124,28.12,47,6,2.37,MX,2023-03-06 17:47:45
229,vila velha,-20.3297,-40.2925,30.97,76,20,8.75,BR,2023-03-06 17:46:20
230,sibolga,1.7427,98.7792,24.46,89,100,1.51,ID,2023-03-06 17:47:46
231,moron,-34.6534,-58.6198,35.57,46,0,4.19,AR,2023-03-06 17:47:46
232,ishigaki,24.3448,124.1572,17.07,67,75,4.63,JP,2023-03-06 17:47:46
233,nakhon thai,17.1006,100.8374,24.44,50,23,1.19,TH,2023-03-06 17:47:46
234,kuala terengganu,5.3302,103.1408,23.97,94,20,1.03,MY,2023-03-06 17:47:46
235,mapiri,-15.25,-68.1667,33.48,41,100,0.29,BO,2023-03-06 17:47:47
236,ulladulla,-35.35,150.4667,21.56,39,18,4.24,AU,2023-03-06 17:47:47
237,veraval,20.9,70.3667,25.44,50,0,3.0,IN,2023-03-06 17:47:47
238,krasnoselkup,65.7,82.4667,-13.49,96,98,4.27,RU,2023-03-06 17:47:47
239,chantada,42.6088,-7.7712,9.57,82,99,1.64,ES,2023-03-06 17:47:47
240,saint-georges,12.0564,-61.7485,26.75,68,19,5.86,GD,2023-03-06 17:47:47
241,north myrtle beach,33.816,-78.68,25.16,61,0,3.09,US,2023-03-06 17:47:47
242,aklavik,68.2191,-135.0107,-32.0,68,20,1.03,CA,2023-03-06 17:47:48
243,carbonia,39.1672,8.5222,13.53,86,97,1.99,IT,2023-03-06 17:47:48
244,salinas,36.6777,-121.6555,12.13,65,0,5.66,US,2023-03-06 17:44:09
245,uige,-7.6087,15.0613,22.66,82,93,0.88,AO,2023-03-06 17:47:48
246,chachapoyas,-6.2317,-77.869,17.45,82,100,1.18,PE,2023-03-06 17:47:14
247,bandarbeyla,9.4942,50.8122,25.31,73,0,6.53,SO,2023-03-06 17:47:48
248,saskylakh,71.9167,114.0833,-25.23,99,100,1.62,RU,2023-03-06 17:47:48
249,nikolskoye,59.7035,30.7861,-4.06,97,100,1.6,RU,2023-03-06 17:47:49
250,port macquarie,-31.4333,152.9167,20.5,78,42,4.16,AU,2023-03-06 17:47:49
251,sandomierz,50.6827,21.749,2.03,84,100,4.08,PL,2023-03-06 17:47:49
252,los llanos de aridane,28.6585,-17.9182,18.86,85,40,2.57,ES,2023-03-06 17:47:49
253,rocha,-34.4833,-54.3333,31.24,25,10,6.26,UY,2023-03-06 17:47:49
254,kavieng,-2.5744,150.7967,27.49,72,97,2.29,PG,2023-03-06 17:47:50
255,kangaatsiaq,68.3065,-53.4641,-8.61,89,49,2.54,GL,2023-03-06 17:47:50
256,saint-augustin,51.226,-58.6502,-1.48,98,99,1.03,CA,2023-03-06 17:47:50
257,palmer,42.1584,-72.3287,8.75,27,40,8.23,US,2023-03-06 17:45:06
258,halifax,44.6453,-63.5724,1.49,73,100,8.23,CA,2023-03-06 17:45:25
259,kapit,2.0167,112.9333,22.58,100,98,0.46,MY,2023-03-06 17:47:50
260,nantucket,41.2835,-70.0995,10.08,46,0,9.26,US,2023-03-06 17:47:50
261,coquimbo,-29.9533,-71.3436,22.85,64,40,5.14,CL,2023-03-06 17:44:20
262,saint-pierre,-21.3393,55.4781,26.82,83,100,2.57,RE,2023-03-06 17:47:51
263,porto santo,33.072,-16.3415,20.21,83,40,3.6,PT,2023-03-06 17:47:51
264,marawi,7.9986,124.2928,18.87,97,89,0.91,PH,2023-03-06 17:47:51
265,labytnangi,66.6572,66.4183,-26.77,94,78,2.47,RU,2023-03-06 17:47:51
266,luderitz,-26.6481,15.1594,18.87,73,0,12.67,NA,2023-03-06 17:47:51
267,samarai,-10.6167,150.6667,26.58,80,42,2.94,PG,2023-03-06 17:47:51
268,chake chake,-5.2459,39.7666,26.22,76,98,5.5,TZ,2023-03-06 17:47:51
269,shakhovskaya,56.0283,35.5097,-7.21,93,74,4.1,RU,2023-03-06 17:47:52
270,itarema,-2.9248,-39.9167,29.2,66,94,6.47,BR,2023-03-06 17:47:52
271,isangel,-19.55,169.2667,25.06,83,35,5.47,VU,2023-03-06 17:47:52
272,heze,35.2431,115.4411,14.57,51,1,3.37,CN,2023-03-06 17:47:52
273,nichinan,31.6,131.3667,9.45,65,0,2.13,JP,2023-03-06 17:47:52
274,ust-kuyga,70.0167,135.6,-22.05,99,100,0.24,RU,2023-03-06 17:47:53
275,trzebiatow,54.0615,15.2648,-0.08,74,75,3.64,PL,2023-03-06 17:47:53
276,kaitangata,-46.2817,169.8464,7.61,94,49,1.93,NZ,2023-03-06 17:47:53
277,kalmunai,7.4167,81.8167,25.05,84,5,2.88,LK,2023-03-06 17:47:53
278,general pico,-35.6566,-63.7568,39.11,20,92,6.66,AR,2023-03-06 17:44:58
279,koutsouras,35.0339,25.9469,15.62,57,26,1.94,GR,2023-03-06 17:47:53
280,guerrero negro,27.9769,-114.0611,16.07,62,100,8.38,MX,2023-03-06 17:47:54
281,vila franca do campo,37.7167,-25.4333,16.23,87,53,7.58,PT,2023-03-06 17:47:54
282,kieta,-6.2167,155.6333,25.88,84,100,1.24,PG,2023-03-06 17:47:54
283,sweetwater,25.7634,-80.3731,32.22,57,20,4.12,US,2023-03-06 17:47:54
284,katsuura,35.1333,140.3,9.78,79,3,2.05,JP,2023-03-06 17:47:54
285,southbridge,42.0751,-72.0334,9.01,30,28,3.58,US,2023-03-06 17:47:54
286,huarmey,-10.0681,-78.1522,25.68,69,98,4.47,PE,2023-03-06 17:47:54
287,solnechnyy,50.7214,136.6319,-8.13,96,97,1.41,RU,2023-03-06 17:47:55
288,lavrentiya,65.5833,-171.0,-2.42,98,100,4.11,RU,2023-03-06 17:47:55
289,kaeo,-35.1,173.7833,16.29,96,48,1.83,NZ,2023-03-06 17:47:55
290,rosetta,31.4044,30.4164,15.43,67,1,4.72,EG,2023-03-06 17:47:55
291,callaway,30.153,-85.5699,25.55,82,100,1.54,US,2023-03-06 17:45:51
292,inyonga,-6.7167,32.0667,21.48,73,76,1.49,TZ,2023-03-06 17:47:55
293,siocon,7.7061,122.1353,24.78,86,20,3.44,PH,2023-03-06 17:47:56
294,paita,-5.0892,-81.1144,28.03,62,98,3.77,PE,2023-03-06 17:47:56
295,longyearbyen,78.2186,15.6401,-14.09,43,40,6.69,SJ,2023-03-06 17:47:56
296,srandakan,-7.9386,110.2506,24.37,88,79,2.02,ID,2023-03-06 17:47:56
297,tual,-5.6667,132.75,27.97,78,100,8.23,ID,2023-03-06 17:47:56
298,chapais,49.7834,-74.8492,-7.12,85,94,6.46,CA,2023-03-06 17:47:56
299,deniliquin,-35.5333,144.9667,16.41,56,5,5.03,AU,2023-03-06 17:47:56
300,kasane,-17.8167,25.15,28.05,51,0,2.06,BW,2023-03-06 17:47:57
301,erenhot,43.6475,111.9767,5.4,32,13,8.06,CN,2023-03-06 17:47:57
302,arlit,18.7369,7.3853,31.84,7,44,5.49,NE,2023-03-06 17:47:57
303,nuuk,64.1835,-51.7216,5.34,52,0,1.03,GL,2023-03-06 17:47:57
304,fortuna,40.5982,-124.1573,5.37,95,75,7.72,US,2023-03-06 17:47:57
305,ovsyanka,55.9575,92.5519,-4.32,95,100,2.69,RU,2023-03-06 17:47:57
306,omsukchan,62.5333,155.8,-27.34,96,91,0.8,RU,2023-03-06 17:47:58
307,cockburn town,21.4612,-71.1419,26.98,61,40,5.14,TC,2023-03-06 17:47:58
308,geraldton,-28.7667,114.6,18.23,77,0,3.6,AU,2023-03-06 17:47:58
309,mitsamiouli,-11.3847,43.2844,27.67,71,96,4.35,KM,2023-03-06 17:47:58
310,biltine,14.5333,20.9167,30.9,11,71,4.73,TD,2023-03-06 17:47:58
311,san antonio,29.4241,-98.4936,23.82,81,100,4.63,US,2023-03-06 17:47:59
312,saint george,37.1041,-113.5841,10.14,49,75,1.34,US,2023-03-06 17:47:59
313,zunyi,27.6867,106.9072,12.74,93,100,1.56,CN,2023-03-06 17:47:59
314,flin flon,54.7682,-101.865,-21.09,59,20,4.63,CA,2023-03-06 17:47:59
315,mucuri,-18.0864,-39.5508,29.02,67,100,6.94,BR,2023-03-06 17:47:59
316,koslan,63.4564,48.8989,-14.53,97,100,2.1,RU,2023-03-06 17:47:59
317,yabrud,33.9674,36.6574,6.72,56,1,2.1,SY,2023-03-06 17:47:59
318,glodeni,47.7708,27.5144,4.3,58,95,2.13,MD,2023-03-06 17:48:00
319,mutoko,-17.397,32.2268,19.59,87,71,2.88,ZW,2023-03-06 17:48:00
320,wewak,-3.5534,143.6268,24.71,87,100,6.3,PG,2023-03-06 17:48:00
321,umm lajj,25.0213,37.2685,25.44,68,39,2.21,SA,2023-03-06 17:45:43
322,igra,57.5558,53.0547,-5.03,97,100,1.62,RU,2023-03-06 17:48:00
323,urusha,54.05,122.9,-21.05,97,94,1.5,RU,2023-03-06 17:47:45
324,nouadhibou,20.931,-17.0347,23.99,53,2,6.69,MR,2023-03-06 17:48:00
325,innisfail,-17.5333,146.0333,22.32,91,98,0.95,AU,2023-03-06 17:48:01
326,ulaanbaatar,47.9077,106.8832,1.07,64,75,2.0,MN,2023-03-06 17:42:10
327,dongzhen,22.3797,110.9389,17.44,71,2,0.72,CN,2023-03-06 17:48:01
328,acari,-15.4311,-74.6158,29.53,52,84,4.86,PE,2023-03-06 17:48:01
329,chernyshevskiy,63.0128,112.4714,-37.25,100,23,0.9,RU,2023-03-06 17:48:01
330,college,64.8569,-147.8028,-10.82,82,100,0.0,US,2023-03-06 17:48:02
331,dunedin,-45.8742,170.5036,11.56,84,43,1.74,NZ,2023-03-06 17:45:09
332,quatre cocos,-20.2078,57.7625,26.06,86,100,1.61,MU,2023-03-06 17:48:02
333,narsaq,60.9167,-46.05,13.12,89,9,0.34,GL,2023-03-06 17:48:02
334,cabra,37.4725,-4.4421,10.42,89,100,2.32,ES,2023-03-06 17:48:02
335,pavlodar,52.3,76.95,-1.11,80,40,8.0,KZ,2023-03-06 17:48:03
336,barra patuca,15.8,-84.2833,28.25,57,66,4.44,HN,2023-03-06 17:48:03
337,hofn,64.2539,-15.2082,-4.99,54,20,10.29,IS,2023-03-06 17:48:03
338,puerto ayora,-0.7393,-90.3518,28.98,82,64,3.58,EC,2023-03-06 17:48:03
339,baruun-urt,46.6806,113.2792,2.15,35,94,7.15,MN,2023-03-06 17:48:03
340,tamworth,52.634,-1.6959,7.18,91,100,4.69,GB,2023-03-06 17:47:54
341,bria,6.5423,21.9863,31.16,17,16,1.66,CF,2023-03-06 17:48:04
342,sao jose da coroa grande,-8.8978,-35.1478,29.11,61,100,5.39,BR,2023-03-06 17:48:04
343,port-gentil,-0.7193,8.7815,27.98,74,75,6.17,GA,2023-03-06 17:48:04
344,arivonimamo,-19.0167,47.1833,18.03,95,100,2.72,MG,2023-03-06 17:48:04
345,puerto madryn,-42.7692,-65.0385,32.2,17,6,7.11,AR,2023-03-06 17:45:57
346,piombino,42.9348,10.5221,13.02,70,4,2.24,IT,2023-03-06 17:48:04
347,oxbow,49.2333,-102.1676,-16.87,69,55,3.94,CA,2023-03-06 17:48:05
348,temba,-25.3803,28.2631,26.72,30,35,2.35,ZA,2023-03-06 17:48:05
349,asfi,32.2994,-9.2372,16.9,82,98,2.45,MA,2023-03-06 17:47:05
350,nemuro,43.3236,145.575,0.1,91,2,4.63,JP,2023-03-06 17:48:05
351,clyde river,70.4692,-68.5914,-10.87,85,75,1.54,CA,2023-03-06 17:48:05
352,leigh,53.4833,-2.5167,6.54,78,100,1.79,GB,2023-03-06 17:48:05
353,contamana,-7.3333,-75.0167,28.11,72,100,1.49,PE,2023-03-06 17:48:06
354,dakar,14.6937,-17.4441,37.49,57,0,3.09,SN,2023-03-06 17:45:39
355,ibra,22.6906,58.5334,22.93,44,0,3.23,OM,2023-03-06 17:48:06
356,lima,-12.0432,-77.0282,26.14,57,0,5.66,PE,2023-03-06 17:48:01
357,jalu,29.0331,21.5482,17.51,34,66,3.38,LY,2023-03-06 17:48:06
358,tsaratanana,-16.7833,47.65,21.43,88,100,0.5,MG,2023-03-06 17:48:06
359,taylor,32.3001,-99.8337,25.1,53,0,5.66,US,2023-03-06 17:48:06
360,palu,-0.8917,119.8707,24.27,94,100,0.51,ID,2023-03-06 17:48:07
361,souillac,-20.5167,57.5167,26.21,83,75,2.06,MU,2023-03-06 17:48:07
362,naze,28.3667,129.4833,9.51,58,0,2.57,JP,2023-03-06 17:48:07
363,karatu,-3.3333,35.6667,21.21,36,23,3.04,TZ,2023-03-06 17:48:07
364,meulaboh,4.1363,96.1285,24.35,87,11,1.61,ID,2023-03-06 17:48:07
365,cidreira,-30.1811,-50.2056,22.88,94,100,5.39,BR,2023-03-06 17:48:07
366,kilindoni,-7.9139,39.6668,27.2,76,94,6.75,TZ,2023-03-06 17:48:07
367,lagoa,39.05,-27.9833,16.21,86,85,11.41,PT,2023-03-06 17:48:08
368,churapcha,62.0025,132.4325,-20.24,100,100,0.77,RU,2023-03-06 17:48:08
369,kongwa,-6.2,36.4167,20.88,67,83,2.03,TZ,2023-03-06 17:48:08
370,marulanda,5.2839,-75.2602,17.05,65,100,1.85,CO,2023-03-06 17:48:08
371,sambava,-14.2667,50.1667,27.04,84,100,2.7,MG,2023-03-06 17:48:08
372,araouane,18.9048,-3.5265,29.99,7,84,4.59,ML,2023-03-06 17:48:08
373,naberera,-4.2,36.9333,21.89,43,71,7.08,TZ,2023-03-06 17:48:09
374,darnah,32.767,22.6367,14.87,66,8,5.79,LY,2023-03-06 17:48:09
375,kutum,14.2,24.6667,25.95,17,2,4.69,SD,2023-03-06 17:48:09
376,narva-joesuu,59.4589,28.0408,-7.56,97,95,1.59,EE,2023-03-06 17:43:24
377,sola,-13.8833,167.55,27.32,75,79,4.87,VU,2023-03-06 17:48:09
378,methoni,36.8197,21.7049,13.45,70,26,4.45,GR,2023-03-06 17:48:09
379,deputatskiy,69.3,139.9,-24.33,98,100,1.46,RU,2023-03-06 17:43:26
380,zhanaozen,43.3,52.8,9.33,77,98,7.11,KZ,2023-03-06 17:44:52
381,syracuse,37.0881,15.2792,10.77,79,79,5.36,IT,2023-03-06 17:48:10
382,murgab,37.4966,61.9714,17.93,36,75,0.0,TM,2023-03-06 17:48:10
383,jiangyou,31.7667,104.7167,12.89,88,76,0.44,CN,2023-03-06 17:48:10
384,tasiilaq,65.6145,-37.6368,-3.91,79,33,4.2,GL,2023-03-06 17:48:10
385,anadyr,64.75,177.4833,-28.72,69,0,6.0,RU,2023-03-06 17:48:10
386,santa luzia,-19.7697,-43.8514,32.08,48,40,3.09,BR,2023-03-06 17:48:10
387,fethiye,36.6217,29.1164,11.93,75,10,1.63,TR,2023-03-06 17:47:01
388,tortoli,39.9256,9.6572,12.9,82,40,2.57,IT,2023-03-06 17:48:10
389,channel-port aux basques,47.5702,-59.1367,-0.71,82,100,6.26,CA,2023-03-06 17:48:11
390,biak,-0.9131,122.8766,24.98,78,98,1.52,ID,2023-03-06 17:48:11
391,cap malheureux,-19.9842,57.6142,24.7,87,100,3.75,MU,2023-03-06 17:48:11
392,olafsvik,64.8945,-23.7142,-3.0,57,65,4.85,IS,2023-03-06 17:48:11
393,talnakh,69.4865,88.3972,-21.0,96,100,3.42,RU,2023-03-06 17:48:11
394,benidorm,38.5382,-0.131,19.05,58,64,4.11,ES,2023-03-06 17:47:30
395,comodoro rivadavia,-45.8667,-67.5,20.92,46,40,7.72,AR,2023-03-06 17:48:12
396,mehamn,71.0357,27.8492,-10.05,67,20,5.14,NO,2023-03-06 17:48:12
397,mogadishu,2.0371,45.3438,25.66,86,14,10.62,SO,2023-03-06 17:47:59
398,los andes,-32.8337,-70.5983,27.23,31,0,4.52,CL,2023-03-06 17:48:12
399,kaset sombun,16.2805,101.9542,23.06,49,0,1.03,TH,2023-03-06 17:48:12
400,roswell,34.0232,-84.3616,24.43,62,0,1.54,US,2023-03-06 17:48:12
401,esna,25.2934,32.554,25.41,18,68,10.0,EG,2023-03-06 17:48:13
402,nizhneudinsk,54.9076,99.0276,-10.76,95,77,1.34,RU,2023-03-06 17:48:13
403,sarangani,5.4033,125.4636,27.29,76,82,3.81,PH,2023-03-06 17:48:13
404,ozinki,51.1786,49.6769,-3.62,94,93,0.52,RU,2023-03-06 17:48:13
405,uruzgan,32.8333,66.0,10.95,54,63,2.68,AF,2023-03-06 17:48:13
406,markapur,15.7333,79.2833,23.21,49,0,1.04,IN,2023-03-06 17:48:13
407,chumikan,54.7183,135.315,-7.8,96,100,3.29,RU,2023-03-06 17:48:14
408,birjand,32.8663,59.2211,11.26,28,0,3.09,IR,2023-03-06 17:48:14
409,korcula,42.9622,17.1369,13.71,68,16,6.82,HR,2023-03-06 17:48:14
410,ancud,-41.8697,-73.8203,11.8,95,100,5.06,CL,2023-03-06 17:48:14
411,carutapera,-1.195,-46.02,27.02,87,94,3.48,BR,2023-03-06 17:48:15
412,basar,27.9833,94.6667,14.38,83,62,1.06,IN,2023-03-06 17:48:15
413,badou,7.5833,0.6,29.87,53,72,1.98,TG,2023-03-06 17:48:15
414,mpulungu,-8.7623,31.1141,23.64,82,100,1.76,ZM,2023-03-06 17:48:15
415,muborak,39.2553,65.1528,19.07,41,3,4.96,UZ,2023-03-06 17:48:15
416,norrtalje,59.758,18.705,-3.09,76,72,1.17,SE,2023-03-06 17:44:33
417,sao filipe,14.8961,-24.4956,23.43,70,91,4.94,CV,2023-03-06 17:48:15
418,mbaiki,3.8678,17.9892,30.07,24,68,1.21,CF,2023-03-06 17:48:16
419,goderich,43.7501,-81.7165,3.28,87,100,5.14,CA,2023-03-06 17:48:16
420,marquette,46.5333,-87.6335,0.14,94,100,3.58,US,2023-03-06 17:48:16
421,ambon,-3.6954,128.1814,25.13,16,40,2.06,ID,2023-03-06 17:48:16
422,owase,34.0667,136.2,8.27,55,0,2.55,JP,2023-03-06 17:48:16
423,sangar,63.9242,127.4739,-25.88,99,96,1.17,RU,2023-03-06 17:46:26
424,haines junction,60.7522,-137.5108,-14.03,72,100,0.51,CA,2023-03-06 17:48:17
425,bud,39.447,-86.1758,21.92,45,98,7.58,US,2023-03-06 17:48:17
426,mujiayingzi,42.1167,118.7833,5.13,27,3,3.13,CN,2023-03-06 17:48:17
427,nelson bay,-32.7167,152.15,25.56,69,1,2.68,AU,2023-03-06 17:48:17
428,zlatoust,55.1711,59.6508,-8.34,79,87,6.26,RU,2023-03-06 17:44:30
429,inuvik,68.3499,-133.7218,-26.52,76,20,3.6,CA,2023-03-06 17:48:17
430,quchan,37.106,58.5095,13.72,37,48,3.43,IR,2023-03-06 17:47:44
431,abu samrah,35.3029,37.1841,11.0,78,1,8.8,SY,2023-03-06 17:48:18
432,almaznyy,48.0448,40.045,-0.44,57,63,1.51,RU,2023-03-06 17:48:18
433,sitka,57.0531,-135.33,-5.06,46,0,0.0,US,2023-03-06 17:48:18
434,arkadak,51.9326,43.4978,-9.45,96,30,2.5,RU,2023-03-06 17:48:18
435,wenling,28.3669,121.36,11.27,77,9,2.43,CN,2023-03-06 17:48:18
436,mongo,12.1844,18.693,31.87,8,42,2.83,TD,2023-03-06 17:48:19
437,werl,51.55,7.9167,4.35,77,100,4.12,DE,2023-03-06 17:48:19
438,labis,2.385,103.021,22.34,93,22,1.26,MY,2023-03-06 17:48:19
439,amos,48.5669,-78.1162,-3.53,79,89,4.21,CA,2023-03-06 17:48:19
440,lulea,65.5842,22.1547,-13.96,92,0,0.0,SE,2023-03-06 17:44:05
441,enshi,30.3,109.4833,13.95,94,100,0.4,CN,2023-03-06 17:48:19
442,mentougou,39.9392,116.0917,8.52,21,0,1.29,CN,2023-03-06 17:48:20
443,matara,5.9485,80.5353,23.94,89,22,3.78,LK,2023-03-06 17:45:42
444,leh,34.1667,77.5833,-14.43,76,54,1.42,IN,2023-03-06 17:47:21
445,alice springs,-23.7,133.8833,23.75,29,25,3.6,AU,2023-03-06 17:48:20
446,harper,4.375,-7.7169,28.24,76,82,4.75,LR,2023-03-06 17:48:20
447,inhambane,-23.865,35.3833,26.99,74,20,3.7,MZ,2023-03-06 17:48:20
448,villanueva de cordoba,38.3228,-4.6287,7.89,98,100,2.51,ES,2023-03-06 17:48:20
449,santa rita,-7.1139,-34.9781,30.37,62,40,6.69,BR,2023-03-06 17:48:20
450,ullapool,57.8987,-5.1604,1.31,83,100,3.69,GB,2023-03-06 17:48:21
451,casablanca,33.5928,-7.6192,21.01,64,75,4.12,MA,2023-03-06 17:48:21
452,edson,53.5835,-116.4356,-16.92,78,100,3.09,CA,2023-03-06 17:48:21
453,konakovo,56.7,36.7667,-7.32,94,100,2.76,RU,2023-03-06 17:48:21
454,alihe,50.5667,123.7167,-12.06,95,74,0.61,CN,2023-03-06 17:48:21
455,port blair,11.6667,92.75,27.02,78,40,1.03,IN,2023-03-06 17:48:21
456,billings,45.7833,-108.5007,-3.17,86,100,3.13,US,2023-03-06 17:48:22
457,kanchanaburi,14.6333,99.1,22.57,55,0,1.37,TH,2023-03-06 17:48:22
458,cobija,-11.0267,-68.7692,32.1,70,75,2.06,BO,2023-03-06 17:48:22
459,maureni,45.4039,21.5025,9.69,62,96,2.98,RO,2023-03-06 17:48:22
460,stephenville,32.2207,-98.2023,25.14,59,0,6.17,US,2023-03-06 17:48:22
461,mizdah,31.4451,12.9801,16.77,17,64,1.77,LY,2023-03-06 17:48:22
462,ghanzi,-21.5667,21.7833,26.13,51,69,7.41,BW,2023-03-06 17:48:22
463,oyem,1.5995,11.5793,24.16,82,83,1.58,GA,2023-03-06 17:48:23
464,svetlyy,54.675,20.1347,-0.97,78,84,2.04,RU,2023-03-06 17:48:23
465,vardo,70.3705,31.1107,-10.01,62,40,5.66,NO,2023-03-06 17:48:23
466,khandyga,62.6667,135.6,-19.73,100,100,0.49,RU,2023-03-06 17:48:23
467,ponta delgada,37.7333,-25.6667,16.4,88,75,8.23,PT,2023-03-06 17:48:23
468,koungheul,13.9833,-14.8,37.07,12,100,1.81,SN,2023-03-06 17:48:24
469,luena,-11.7833,19.9167,17.66,94,98,1.67,AO,2023-03-06 17:48:24
470,mabaruma,8.2,-59.7833,28.69,57,92,3.26,GY,2023-03-06 17:48:24
471,zarya,55.7553,38.0958,-3.79,94,84,2.64,RU,2023-03-06 17:48:24
472,ayan,56.45,138.1667,-12.73,83,100,2.06,RU,2023-03-06 17:48:24
473,fomboni,-12.28,43.7425,28.45,73,100,5.79,KM,2023-03-06 17:48:25
474,concarneau,47.875,-3.9225,7.16,72,98,3.61,FR,2023-03-06 17:43:33
475,cooma,-36.2333,149.1333,12.29,48,3,4.34,AU,2023-03-06 17:48:25
476,betare oya,5.6,14.0833,29.46,21,84,0.89,CM,2023-03-06 17:48:25
477,mancora,-4.1078,-81.0475,26.06,79,100,5.49,PE,2023-03-06 17:48:25
478,dillon,34.4166,-79.3712,25.02,41,5,2.31,US,2023-03-06 17:48:25
479,hot springs,34.5037,-93.0552,24.19,38,0,3.09,US,2023-03-06 17:45:32
480,anshun,26.25,105.9333,12.16,93,99,3.18,CN,2023-03-06 17:46:11
481,dukat,62.55,155.55,-27.29,96,93,0.28,RU,2023-03-06 17:48:26
482,valdosta,30.8327,-83.2785,26.1,62,0,0.45,US,2023-03-06 17:48:26
483,bintulu,3.1667,113.0333,25.23,100,40,1.54,MY,2023-03-06 17:48:26
484,turayf,31.6725,38.6637,17.14,39,0,6.17,SA,2023-03-06 17:48:26
485,lasa,46.6166,10.7002,7.49,94,91,0.34,IT,2023-03-06 17:48:26
486,san juan,-31.5375,-68.5364,36.41,24,0,8.4,AR,2023-03-06 17:47:28
487,portland,45.5234,-122.6762,6.27,89,100,5.14,US,2023-03-06 17:40:03
488,shambu,9.5667,37.1,15.53,50,64,2.0,ET,2023-03-06 17:48:27
489,roma,43.2128,-75.4557,3.74,52,0,2.57,US,2023-03-06 17:47:59
490,bethanien,-26.502,17.1583,24.59,26,0,7.06,NA,2023-03-06 17:48:27
491,yamada,39.4667,141.95,3.24,59,0,2.38,JP,2023-03-06 17:48:27
492,zhuhai,22.2769,113.5678,20.48,72,0,3.09,CN,2023-03-06 17:48:27
493,pangnirtung,66.1451,-65.7125,1.0,75,75,0.0,CA,2023-03-06 17:48:28
494,aranos,-24.1333,19.1167,27.25,14,1,2.75,NA,2023-03-06 17:48:28
495,miraflores,19.2167,-98.8083,22.24,24,58,1.76,MX,2023-03-06 17:48:28
496,sakakah,29.9697,40.2064,24.76,21,25,4.04,SA,2023-03-06 17:48:28
497,loiza,18.4313,-65.8802,28.23,69,40,5.66,PR,2023-03-06 17:48:28
498,fougamou,-1.2154,10.5838,25.84,93,96,0.97,GA,2023-03-06 17:48:28
499,chifeng,42.2683,118.9636,4.64,31,4,2.55,CN,2023-03-06 17:48:28
500,bilibino,68.0546,166.4372,-37.1,98,27,1.84,RU,2023-03-06 17:48:29
501,pirassununga,-21.9961,-47.4258,23.81,69,75,8.23,BR,2023-03-06 17:48:29
502,praia da vitoria,38.7333,-27.0667,17.14,94,75,14.64,PT,2023-03-06 17:48:29
503,berlevag,70.8578,29.0864,-9.11,52,75,3.6,NO,2023-03-06 17:48:29
504,rumoi,43.9344,141.6428,2.35,88,98,3.33,JP,2023-03-06 17:48:29
505,ruwi,23.5996,58.5507,24.83,55,0,2.76,OM,2023-03-06 17:48:29
506,vostok,46.4856,135.8833,-2.14,99,94,2.07,RU,2023-03-06 17:48:30
507,staryy krym,45.0333,35.1,3.33,71,22,2.31,UA,2023-03-06 17:48:30
508,brejo santo,-7.4933,-38.9872,32.13,22,98,1.16,BR,2023-03-06 17:48:30
509,constantine,36.365,6.6147,11.67,71,40,5.66,DZ,2023-03-06 17:46:19
510,esmeraldas,-19.7625,-44.3139,32.06,45,11,1.68,BR,2023-03-06 17:48:30
511,trelew,-43.249,-65.3051,33.37,15,16,8.77,AR,2023-03-06 17:48:30
512,coahuayana,18.7333,-103.6833,30.13,45,32,2.66,MX,2023-03-06 17:48:31
513,astana,51.1801,71.446,-1.03,93,100,9.0,KZ,2023-03-06 17:42:36
514,troitskoye,52.9821,84.6757,-4.13,94,100,3.93,RU,2023-03-06 17:48:31
515,derzhavinsk,51.1,66.3167,0.49,98,100,5.06,KZ,2023-03-06 17:48:31
516,maningrida,-12.0667,134.2667,25.86,82,100,5.66,AU,2023-03-06 17:48:31
517,jiayuguan,39.8167,98.3,5.39,30,83,2.6,CN,2023-03-06 17:48:31
518,san antero,9.3741,-75.7589,29.57,67,49,5.27,CO,2023-03-06 17:48:31
519,selenginsk,52.0064,106.8647,-5.77,96,100,1.54,RU,2023-03-06 17:48:32
520,wamba,8.9333,8.6,33.41,24,51,1.98,NG,2023-03-06 17:48:32
521,port lincoln,-34.7333,135.8667,15.96,65,62,5.37,AU,2023-03-06 17:48:32
522,stromness,58.965,-3.296,0.98,60,100,13.35,GB,2023-03-06 17:48:32
523,labrea,-7.2586,-64.7981,24.69,91,100,1.05,BR,2023-03-06 17:48:32
524,half moon bay,37.4636,-122.4286,10.63,79,0,4.63,US,2023-03-06 17:48:33
525,ayna,-12.65,-73.9167,21.71,72,94,2.67,PE,2023-03-06 17:48:33
526,buala,-8.145,159.5921,26.3,84,79,2.57,SB,2023-03-06 17:48:33
527,vilyuysk,63.7553,121.6247,-20.41,98,100,2.26,RU,2023-03-06 17:48:33
528,gladstone,-23.85,151.25,20.96,83,24,2.57,AU,2023-03-06 17:48:33
529,lityn,49.3251,28.0809,-0.43,79,99,1.43,UA,2023-03-06 17:48:33
530,klyuchi,52.2667,79.1667,-1.59,86,100,6.07,RU,2023-03-06 17:48:33
531,muravlenko,63.7898,74.523,-11.82,96,99,4.47,RU,2023-03-06 17:48:34
532,ha giang,22.8333,104.9833,19.9,85,92,1.07,VN,2023-03-06 17:48:34
533,mount isa,-20.7333,139.5,22.87,100,40,3.09,AU,2023-03-06 17:48:34
534,jaru,-10.4389,-62.4664,31.49,64,98,0.78,BR,2023-03-06 17:48:34
535,skjervoy,70.0311,20.9714,-10.0,61,78,5.33,NO,2023-03-06 17:48:34
536,tiznit,29.5833,-9.5,16.58,54,86,2.94,MA,2023-03-06 17:48:34
537,shalazhi,43.0978,45.3608,5.64,92,97,3.1,RU,2023-03-06 17:48:34
538,north las vegas,36.1989,-115.1175,12.19,43,0,5.66,US,2023-03-06 17:48:35
539,riverton,40.5219,-111.9391,2.31,77,75,2.24,US,2023-03-06 17:48:35
540,okhotsk,59.3833,143.3,-24.49,96,58,1.22,RU,2023-03-06 17:48:35
541,susanville,40.4163,-120.653,-0.66,77,100,1.54,US,2023-03-06 17:48:35
542,chadiza,-14.0678,32.4392,19.71,96,86,0.46,ZM,2023-03-06 17:48:35
543,aviles,43.5547,-5.9248,12.18,75,40,2.57,ES,2023-03-06 17:48:35
544,orleans,30.0335,-89.9501,29.44,70,100,5.14,US,2023-03-06 17:48:36
545,laukaa,58.7372,29.8453,-5.87,96,97,2.26,RU,2023-03-06 17:48:36
546,bayji,34.9311,43.487,20.12,33,93,5.94,IQ,2023-03-06 17:48:36
547,barra do corda,-5.5,-45.25,29.52,74,69,2.8,BR,2023-03-06 17:48:36
548,phangnga,8.4509,98.5298,23.02,86,25,1.83,TH,2023-03-06 17:48:36
549,asau,46.4333,26.4,0.71,62,100,1.93,RO,2023-03-06 17:48:36
550,kologriv,58.8275,44.3178,-7.14,98,100,1.37,RU,2023-03-06 17:48:36
551,fairlie,55.756,-4.8556,4.11,78,56,1.79,GB,2023-03-06 17:48:37
552,aktau,43.65,51.2,7.32,92,80,8.56,KZ,2023-03-06 17:48:37
553,ostrovnoy,68.0531,39.5131,-11.15,91,100,4.74,RU,2023-03-06 17:48:37
554,boundiali,9.5217,-6.4869,36.78,15,73,2.25,CI,2023-03-06 17:48:37
555,leopold,-38.1833,144.4667,16.01,69,50,8.23,AU,2023-03-06 17:48:37
556,ugoofaaru,5.6667,73.0,27.12,80,76,5.66,MV,2023-03-06 17:48:37
557,luorong,24.4058,109.6086,22.47,47,98,3.48,CN,2023-03-06 17:48:38
558,abnub,27.2696,31.1511,21.14,26,62,6.68,EG,2023-03-06 17:48:38
559,dali,25.7,100.1833,9.25,57,0,2.62,CN,2023-03-06 17:46:27
560,petrolina,-9.3986,-40.5008,37.03,28,40,3.6,BR,2023-03-06 17:48:38
561,penzance,50.1186,-5.5371,7.65,65,20,4.63,GB,2023-03-06 17:48:38
562,namibe,-15.1961,12.1522,22.43,74,37,3.97,AO,2023-03-06 17:48:38
563,tautira,-17.7333,-149.15,25.05,87,100,7.74,PF,2023-03-06 17:45:14
564,a coruna,43.3713,-8.396,13.78,79,20,2.06,ES,2023-03-06 17:48:02
