City_ID,City,Lat,Lng,Max Temp,Humidity,Cloudiness,Wind Speed,Country,Date
0,ushuaia,-54.8,-68.3,6.79,81,100,1.54,AR,2023-03-05 18:11:34
1,rikitea,-23.1203,-134.9692,27.06,68,100,8.18,PF,2023-03-05 18:11:41
2,east london,-33.0153,27.9116,22.52,83,0,3.09,ZA,2023-03-05 18:12:00
3,valjevo,44.2751,19.8982,3.77,64,92,0.85,RS,2023-03-05 18:12:00
4,port-gentil,-0.7193,8.7815,28.35,79,47,5.61,GA,2023-03-05 18:07:42
5,guane,22.2025,-84.0875,30.44,45,4,5.04,CU,2023-03-05 18:12:01
6,chokurdakh,70.6333,147.9167,-45.42,100,51,1.28,RU,2023-03-05 18:12:01
7,norman wells,65.282,-126.8329,-31.98,68,20,0.0,CA,2023-03-05 18:12:01
8,sioux lookout,50.1001,-91.917,1.04,55,20,2.06,CA,2023-03-05 18:12:01
9,qaanaaq,77.484,-69.3632,-3.82,63,100,3.39,GL,2023-03-05 18:10:01
10,wajima,37.4,136.9,6.42,59,6,1.38,JP,2023-03-05 18:12:02
11,cap malheureux,-19.9842,57.6142,25.26,87,100,8.68,MU,2023-03-05 18:09:54
12,xichang,27.8964,102.2634,12.13,67,86,1.32,CN,2023-03-05 18:12:02
13,saint-philippe,-21.3585,55.7679,24.77,84,100,2.48,RE,2023-03-05 18:11:41
14,port lincoln,-34.7333,135.8667,15.22,80,0,3.39,AU,2023-03-05 18:12:02
15,solnechnyy,50.7214,136.6319,-5.94,93,69,2.24,RU,2023-03-05 18:12:03
16,boa vista,2.8197,-60.6733,30.99,51,40,5.66,BR,2023-03-05 18:12:03
17,mataura,-46.1927,168.8643,3.2,98,5,1.0,NZ,2023-03-05 18:11:34
18,tuktoyaktuk,69.4541,-133.0374,-35.0,75,0,1.54,CA,2023-03-05 18:12:03
19,kumluca,36.3703,30.2869,14.53,84,93,2.53,TR,2023-03-05 18:08:03
20,sumbe,-11.2061,13.8437,25.11,78,70,5.87,AO,2023-03-05 18:12:03
21,upernavik,72.7868,-56.1549,-6.47,89,95,2.19,GL,2023-03-05 18:11:49
22,rafaela,-31.2503,-61.4867,37.22,23,0,3.58,AR,2023-03-05 18:12:04
23,albany,42.6001,-73.9662,5.37,71,98,3.6,US,2023-03-05 18:11:39
24,jamestown,42.097,-79.2353,3.77,93,100,4.12,US,2023-03-05 18:11:34
25,puerto ayora,-0.7393,-90.3518,28.98,85,22,2.68,EC,2023-03-05 18:11:43
26,manaure,11.7751,-72.4445,24.91,84,84,10.16,CO,2023-03-05 18:12:05
27,mansa,29.9833,75.3833,18.89,30,1,2.89,IN,2023-03-05 18:12:05
28,mar del plata,-38.0023,-57.5575,30.46,79,20,6.69,AR,2023-03-05 18:12:05
29,castro,-24.7911,-50.0119,24.0,71,11,3.53,BR,2023-03-05 18:11:44
30,yellowknife,62.456,-114.3525,-24.78,87,69,3.97,CA,2023-03-05 18:11:47
31,new norfolk,-42.7826,147.0587,16.07,85,93,1.17,AU,2023-03-05 18:11:46
32,ribeira grande,38.5167,-28.7,15.43,67,20,10.29,PT,2023-03-05 18:11:38
33,hilo,19.7297,-155.09,24.04,82,20,1.54,US,2023-03-05 18:12:06
34,maceio,-9.6658,-35.7353,31.69,58,75,7.72,BR,2023-03-05 18:12:06
35,santa cruz de la palma,28.6835,-17.7642,20.08,77,40,5.14,ES,2023-03-05 18:12:06
36,hobart,-42.8794,147.3294,16.26,94,100,2.06,AU,2023-03-05 18:11:47
37,tome,-36.6167,-72.95,21.34,58,13,2.98,CL,2023-03-05 18:08:09
38,malino,15.1257,120.6727,24.68,64,75,1.03,PH,2023-03-05 18:12:07
39,fukue,32.6881,128.8419,11.58,59,0,5.38,JP,2023-03-05 18:12:07
40,chuy,-33.6971,-53.4616,26.8,55,15,5.1,UY,2023-03-05 18:11:45
41,cidreira,-30.1811,-50.2056,24.1,87,66,3.73,BR,2023-03-05 18:12:07
42,celestun,20.8667,-90.4,26.02,73,44,4.24,MX,2023-03-05 18:12:07
43,tuatapere,-46.1333,167.6833,5.29,95,20,1.99,NZ,2023-03-05 18:12:07
44,punta arenas,-53.15,-70.9167,8.06,81,100,7.2,CL,2023-03-05 18:09:03
45,atambua,-9.1061,124.8925,24.02,82,100,3.98,ID,2023-03-05 18:12:08
46,severo-yeniseyskiy,60.3725,93.0408,-21.63,100,92,1.95,RU,2023-03-05 18:12:08
47,talnakh,69.4865,88.3972,-26.0,98,100,2.91,RU,2023-03-05 18:12:08
48,methoni,36.8197,21.7049,11.79,71,75,10.5,GR,2023-03-05 18:12:08
49,baherden,38.4362,57.4316,15.27,53,4,3.53,TM,2023-03-05 18:12:09
50,butaritari,3.0707,172.7902,26.77,79,93,2.48,KI,2023-03-05 18:12:09
51,tasiilaq,65.6145,-37.6368,-1.91,85,26,2.61,GL,2023-03-05 18:11:47
52,coihaique,-45.5752,-72.0662,23.34,53,75,7.72,CL,2023-03-05 18:12:09
53,arraial do cabo,-22.9661,-42.0278,29.92,62,0,6.17,BR,2023-03-05 18:08:36
54,ilulissat,69.2167,-51.1,-0.99,80,9,2.57,GL,2023-03-05 18:12:10
55,road town,18.4167,-64.6167,28.05,65,20,5.66,VG,2023-03-05 18:07:20
56,cabedelo,-6.9811,-34.8339,31.37,64,94,4.89,BR,2023-03-05 18:12:10
57,ahraura,25.0167,83.0167,21.8,32,3,2.12,IN,2023-03-05 18:12:10
58,penha,-26.7694,-48.6458,24.95,82,56,4.07,BR,2023-03-05 18:12:10
59,kieta,-6.2167,155.6333,26.65,77,100,2.61,PG,2023-03-05 18:12:10
60,khatanga,71.9667,102.5,-25.76,99,100,3.04,RU,2023-03-05 18:11:36
61,necochea,-38.5473,-58.7368,31.7,34,0,2.94,AR,2023-03-05 18:11:49
62,busselton,-33.65,115.3333,16.4,78,0,6.97,AU,2023-03-05 18:11:51
63,thompson,55.7435,-97.8558,-14.37,85,50,3.56,CA,2023-03-05 18:11:43
64,vanimo,-2.6741,141.3028,24.53,93,100,2.9,PG,2023-03-05 18:12:11
65,awbari,26.5921,12.7805,16.98,14,3,4.26,LY,2023-03-05 18:12:11
66,kautokeino,69.0125,23.0412,-20.93,99,22,1.17,NO,2023-03-05 18:12:12
67,luanda,-8.8368,13.2343,27.0,74,40,5.66,AO,2023-03-05 18:08:24
68,mabaruma,8.2,-59.7833,29.25,57,75,4.11,GY,2023-03-05 18:12:12
69,olive branch,34.9618,-89.8295,21.07,38,0,3.09,US,2023-03-05 18:12:12
70,hermanus,-34.4187,19.2345,18.22,95,87,5.58,ZA,2023-03-05 18:11:42
71,kaitangata,-46.2817,169.8464,4.51,99,9,0.53,NZ,2023-03-05 18:11:49
72,kapaa,22.0752,-159.319,21.77,93,40,4.12,US,2023-03-05 18:11:41
73,umm lajj,25.0213,37.2685,27.85,51,89,1.85,SA,2023-03-05 18:12:12
74,bredasdorp,-34.5322,20.0403,19.23,83,100,5.65,ZA,2023-03-05 18:11:36
75,vaini,-21.2,-175.2,25.09,94,100,9.26,TO,2023-03-05 18:11:38
76,isangel,-19.55,169.2667,24.5,90,12,2.3,VU,2023-03-05 18:12:13
77,tumut,-35.3,148.2167,17.49,86,28,1.67,AU,2023-03-05 18:12:13
78,kichera,55.9375,110.0997,-13.3,91,100,0.59,RU,2023-03-05 18:12:13
79,ancud,-41.8697,-73.8203,14.64,97,98,7.04,CL,2023-03-05 18:12:13
80,georgetown,5.4112,100.3354,26.96,61,20,3.09,MY,2023-03-05 18:10:31
81,andenes,69.3143,16.1194,-4.01,80,75,7.72,NO,2023-03-05 18:12:14
82,igarka,67.4667,86.5833,-25.31,100,98,1.67,RU,2023-03-05 18:12:14
83,port alfred,-33.5906,26.891,21.21,97,69,0.45,ZA,2023-03-05 18:12:14
84,katsuura,35.1333,140.3,10.68,88,100,5.52,JP,2023-03-05 18:12:14
85,ust-ishim,57.6935,71.1665,-6.11,98,99,1.99,RU,2023-03-05 18:12:15
86,dikson,73.5069,80.5464,-34.56,100,54,1.35,RU,2023-03-05 18:11:35
87,faanui,-16.4833,-151.75,28.52,71,99,7.06,PF,2023-03-05 18:12:15
88,westland,51.9967,4.2273,4.43,88,75,1.54,NL,2023-03-05 18:12:15
89,bluff,-46.6,168.3333,6.68,90,12,3.62,NZ,2023-03-05 18:11:43
90,souillac,-20.5167,57.5167,24.21,100,75,1.03,MU,2023-03-05 18:12:15
91,cherskiy,68.75,161.3,-36.24,100,96,2.48,RU,2023-03-05 18:11:51
92,salta,-24.7859,-65.4117,27.33,69,75,2.57,AR,2023-03-05 18:11:46
93,cape town,-33.9258,18.4232,19.08,89,75,7.2,ZA,2023-03-05 18:10:34
94,talaya,61.3833,152.75,-35.66,100,83,0.95,RU,2023-03-05 18:12:16
95,ahipara,-35.1667,173.1667,18.84,63,100,7.47,NZ,2023-03-05 18:12:16
96,airai,-8.9266,125.4092,14.8,95,93,1.0,TL,2023-03-05 18:12:17
97,nikolskoye,59.7035,30.7861,-2.06,98,100,0.92,RU,2023-03-05 18:12:17
98,morondava,-20.2833,44.2833,27.26,82,98,9.73,MG,2023-03-05 18:12:17
99,teya,60.3778,92.6267,-22.68,100,95,1.53,RU,2023-03-05 18:12:17
100,marsh harbour,26.5412,-77.0636,26.67,65,13,1.5,BS,2023-03-05 18:12:18
101,ambon,-3.6954,128.1814,26.08,16,40,1.54,ID,2023-03-05 18:12:18
102,isiro,2.7739,27.616,27.06,44,81,0.94,CD,2023-03-05 18:12:18
103,matay,28.419,30.7792,25.32,14,13,4.75,EG,2023-03-05 18:12:18
104,longyearbyen,78.2186,15.6401,-16.09,85,75,3.09,SJ,2023-03-05 18:12:18
105,hailar,49.2,119.7,-8.35,86,75,4.05,CN,2023-03-05 18:12:18
106,clyde river,70.4692,-68.5914,-12.87,85,100,4.63,CA,2023-03-05 18:11:38
107,tezu,27.9167,96.1667,21.05,38,69,2.12,IN,2023-03-05 18:12:19
108,diplo,24.4667,69.584,25.65,40,5,2.54,PK,2023-03-05 18:12:19
109,midland,31.9974,-102.0779,25.03,21,0,6.17,US,2023-03-05 18:12:19
110,ardakan,32.31,54.0175,18.95,22,31,3.19,IR,2023-03-05 18:12:19
111,saskylakh,71.9167,114.0833,-26.6,99,100,2.97,RU,2023-03-05 18:12:19
112,carnarvon,-24.8667,113.6333,25.22,77,0,12.84,AU,2023-03-05 18:11:48
113,terrace bay,48.7834,-87.1,0.32,99,50,1.89,CA,2023-03-05 18:12:20
114,sao joao da barra,-21.6403,-41.0511,31.05,48,100,0.4,BR,2023-03-05 18:11:36
115,siyabuswa,-25.1132,29.0445,26.62,41,23,2.44,ZA,2023-03-05 18:12:20
116,daru,-9.0763,143.2092,23.42,95,100,3.08,PG,2023-03-05 18:12:20
117,port elizabeth,-33.918,25.5701,21.17,99,71,6.26,ZA,2023-03-05 18:10:28
118,magdalena,14.1999,121.429,22.97,73,3,6.21,PH,2023-03-05 18:12:21
119,tura,25.5198,90.2201,20.38,43,0,2.59,IN,2023-03-05 18:12:21
120,kungurtug,50.5994,97.5228,-14.93,89,45,1.21,RU,2023-03-05 18:12:21
121,uruguaiana,-29.7547,-57.0883,32.96,43,40,4.12,BR,2023-03-05 18:12:21
122,bilma,18.6853,12.9164,32.0,9,22,3.34,NE,2023-03-05 18:11:37
123,mount isa,-20.7333,139.5,23.87,100,40,2.57,AU,2023-03-05 18:12:21
124,bathsheba,13.2167,-59.5167,29.34,58,20,9.77,BB,2023-03-05 18:11:35
125,atuona,-9.8,-139.0333,27.07,78,4,7.16,PF,2023-03-05 18:11:46
126,nara,34.6851,135.8049,4.89,54,0,0.67,JP,2023-03-05 18:12:22
127,touros,-5.1989,-35.4608,29.16,64,100,5.82,BR,2023-03-05 18:09:36
128,ribeira brava,32.65,-17.0667,20.0,87,66,3.79,PT,2023-03-05 18:12:22
129,wanaka,-44.7,169.15,4.58,93,1,2.15,NZ,2023-03-05 18:12:23
130,nabire,-3.3667,135.4833,24.15,91,100,1.14,ID,2023-03-05 18:12:23
131,leningradskiy,69.3833,178.4167,-22.2,98,100,3.99,RU,2023-03-05 18:12:23
132,andros town,24.7,-77.7667,25.98,55,58,4.81,BS,2023-03-05 18:12:23
133,torbay,47.6666,-52.7314,-0.62,57,20,4.12,CA,2023-03-05 18:12:23
134,salalah,17.0151,54.0924,26.05,65,0,1.54,OM,2023-03-05 18:12:24
135,brae,60.3964,-1.353,1.37,98,100,1.28,GB,2023-03-05 18:12:24
136,kodiak,57.79,-152.4072,-4.27,86,0,0.0,US,2023-03-05 18:12:24
137,cabo san lucas,22.8909,-109.9124,26.45,35,0,1.03,MX,2023-03-05 18:11:33
138,faya,18.3851,42.4509,17.29,59,39,1.94,SA,2023-03-05 18:11:46
139,sangeru,45.1333,26.35,7.01,72,100,1.44,RO,2023-03-05 18:12:25
140,bambous virieux,-20.3428,57.7575,25.12,100,75,1.03,MU,2023-03-05 18:12:25
141,jiayuguan,39.8167,98.3,4.54,35,1,3.03,CN,2023-03-05 18:12:25
142,avarua,-21.2078,-159.775,28.03,89,100,8.23,CK,2023-03-05 18:11:38
143,odienne,9.51,-7.5692,30.2,43,59,3.0,CI,2023-03-05 18:12:26
144,rocha,-34.4833,-54.3333,32.28,28,17,4.4,UY,2023-03-05 18:12:26
145,khorixas,-20.3667,14.9667,25.4,19,0,7.45,NA,2023-03-05 18:12:26
146,tiksi,71.6872,128.8694,-19.82,100,100,1.77,RU,2023-03-05 18:08:24
147,sitka,57.0531,-135.33,-2.06,40,0,4.63,US,2023-03-05 18:12:26
148,oktyabrskiy,54.4815,53.471,-1.28,83,100,10.61,RU,2023-03-05 18:12:00
149,luang prabang,19.8856,102.1347,20.02,64,26,0.55,LA,2023-03-05 18:12:27
150,manggar,-2.8833,108.2667,25.09,85,90,4.19,ID,2023-03-05 18:12:27
151,bethel,41.3712,-73.414,10.57,57,75,4.63,US,2023-03-05 18:12:27
152,barrow,71.2906,-156.7887,-18.99,78,100,11.32,US,2023-03-05 18:10:01
153,grand haven,43.0631,-86.2284,9.62,68,40,5.14,US,2023-03-05 18:12:27
154,chicama,-7.8447,-79.1469,24.3,60,99,3.52,PE,2023-03-05 18:12:28
155,sisimiut,66.9395,-53.6735,1.08,69,94,5.15,GL,2023-03-05 18:12:28
156,cascais,38.6979,-9.4215,15.7,78,40,7.6,PT,2023-03-05 18:12:28
157,galesong,-5.3166,119.3661,24.01,85,100,3.34,ID,2023-03-05 18:12:28
158,samarai,-10.6167,150.6667,26.75,78,98,3.5,PG,2023-03-05 18:12:28
159,canon city,38.441,-105.2424,14.54,15,0,8.75,US,2023-03-05 18:12:28
160,foumban,5.7291,10.9001,25.83,42,98,1.63,CM,2023-03-05 18:12:29
161,los llanos de aridane,28.6585,-17.9182,17.86,85,40,5.14,ES,2023-03-05 18:12:29
162,narsaq,60.9167,-46.05,11.12,73,57,2.98,GL,2023-03-05 18:12:29
163,lebu,-37.6167,-73.65,18.55,76,2,6.02,CL,2023-03-05 18:11:35
164,saldanha,-33.0117,17.9442,17.84,90,20,7.53,ZA,2023-03-05 18:11:44
165,maldonado,-34.6667,-54.9167,30.66,38,4,5.94,UY,2023-03-05 18:12:29
166,porciuncula,-20.9628,-42.0408,29.93,62,100,1.46,BR,2023-03-05 18:12:30
167,rajmahal,25.05,87.8333,24.1,23,0,2.49,IN,2023-03-05 18:12:30
168,victoria,22.2855,114.1577,19.1,77,0,5.81,HK,2023-03-05 18:10:25
169,llanes,43.4198,-4.7549,11.05,81,15,3.9,ES,2023-03-05 18:12:30
170,oistins,13.0667,-59.5333,29.05,58,20,9.77,BB,2023-03-05 18:12:30
171,warrnambool,-38.3833,142.4833,12.6,90,47,3.31,AU,2023-03-05 18:12:30
172,lata,40.1629,-8.3327,12.26,92,100,1.99,PT,2023-03-05 18:12:30
173,antofagasta,-23.65,-70.4,23.6,73,32,3.19,CL,2023-03-05 18:12:31
174,vardo,70.3705,31.1107,-9.01,79,20,3.09,NO,2023-03-05 18:12:31
175,port-de-bouc,43.4,4.9833,11.44,66,0,4.12,FR,2023-03-05 18:10:01
176,sao filipe,14.8961,-24.4956,23.23,66,100,5.7,CV,2023-03-05 18:11:52
177,beringovskiy,63.05,179.3167,-22.97,90,94,4.91,RU,2023-03-05 18:10:49
178,hithadhoo,-0.6,73.0833,28.08,71,30,1.92,MV,2023-03-05 18:12:31
179,vila velha,-20.3297,-40.2925,30.97,64,20,9.26,BR,2023-03-05 18:05:05
180,pacific grove,36.6177,-121.9166,11.5,80,75,3.6,US,2023-03-05 18:12:32
181,wuda,39.4994,106.7117,6.26,28,54,6.26,CN,2023-03-05 18:12:32
182,shakhtinsk,49.71,72.5872,-1.56,94,100,5.82,KZ,2023-03-05 18:12:32
183,sechura,-5.5569,-80.8222,29.99,55,64,4.77,PE,2023-03-05 18:12:33
184,liku,-0.7275,119.8922,23.03,92,100,0.51,ID,2023-03-05 18:12:33
185,poum,-20.2333,164.0167,25.81,80,36,4.7,NC,2023-03-05 18:11:48
186,karratha,-20.7377,116.8463,28.94,74,47,7.94,AU,2023-03-05 18:12:33
187,vila,42.0304,-8.1588,4.49,84,100,1.35,PT,2023-03-05 18:12:34
188,sayaxche,16.5167,-90.1667,30.29,54,23,1.47,GT,2023-03-05 18:12:34
189,nouadhibou,20.931,-17.0347,22.99,60,21,6.17,MR,2023-03-05 18:12:34
190,shelbyville,35.4834,-86.4603,19.69,26,0,2.06,US,2023-03-05 18:12:34
191,grindavik,63.8424,-22.4338,2.26,80,75,7.2,IS,2023-03-05 18:12:34
192,mazagao,-0.115,-51.2894,30.03,68,86,3.17,BR,2023-03-05 18:12:35
193,korla,41.7597,86.1469,8.61,45,15,3.63,CN,2023-03-05 18:12:35
194,guerrero negro,27.9769,-114.0611,15.59,61,54,6.71,MX,2023-03-05 18:11:38
195,ortigueira,-24.2083,-50.9494,25.39,68,12,3.31,BR,2023-03-05 18:12:35
196,vestmannaeyjar,63.4427,-20.2734,2.55,93,100,7.2,IS,2023-03-05 18:12:35
197,luderitz,-26.6481,15.1594,17.5,88,0,5.02,NA,2023-03-05 18:11:51
198,byron bay,-28.65,153.6167,18.73,98,12,1.24,AU,2023-03-05 18:12:36
199,kavaratti,10.5669,72.642,27.93,65,0,2.46,IN,2023-03-05 18:12:36
200,gushikawa,26.3544,127.8686,15.57,76,0,2.57,JP,2023-03-05 18:12:36
201,kibala,9.1104,18.3463,32.97,12,0,1.03,TD,2023-03-05 18:12:36
202,gao,16.6362,1.637,33.15,9,5,6.03,ML,2023-03-05 18:12:36
203,boende,-0.2167,20.8667,28.92,43,94,0.76,CD,2023-03-05 18:12:37
204,los amates,15.2667,-89.1,28.75,57,30,2.59,GT,2023-03-05 18:12:37
205,hede,33.7681,120.2517,7.24,76,0,3.37,CN,2023-03-05 18:12:37
206,san jeronimo,-11.9472,-75.2829,17.19,47,100,1.76,PE,2023-03-05 18:12:37
207,pevek,69.7008,170.3133,-36.69,100,55,3.62,RU,2023-03-05 18:12:37
208,taoudenni,22.6783,-3.9836,30.49,10,52,2.66,ML,2023-03-05 18:12:37
209,igrim,63.1906,64.4162,-14.43,97,97,2.37,RU,2023-03-05 18:12:38
210,zarand,30.8127,56.564,15.64,24,1,1.53,IR,2023-03-05 18:10:51
211,la ronge,55.1001,-105.2842,-20.86,54,40,5.14,CA,2023-03-05 18:12:38
212,general roca,-39.0333,-67.5833,37.57,17,0,4.56,AR,2023-03-05 18:11:16
213,shelburne,44.0787,-80.2041,2.64,91,99,5.82,CA,2023-03-05 18:12:38
214,ust-nera,64.5667,143.2,-29.53,99,99,1.3,RU,2023-03-05 18:12:38
215,verkhoyansk,67.5447,133.385,-27.95,100,99,0.93,RU,2023-03-05 18:12:38
216,mount gambier,-37.8333,140.7667,13.74,77,3,4.22,AU,2023-03-05 18:11:39
217,bulgan,48.8125,103.5347,-5.31,70,38,1.53,MN,2023-03-05 18:12:39
218,bilibino,68.0546,166.4372,-31.39,100,100,0.62,RU,2023-03-05 18:12:39
219,atasu,48.6814,71.6433,-0.97,94,100,3.99,KZ,2023-03-05 18:12:39
220,moose factory,51.2585,-80.6094,0.0,55,100,5.66,CA,2023-03-05 18:12:39
221,hualmay,-11.0964,-77.6139,22.03,81,83,4.46,PE,2023-03-05 18:12:40
222,nsanje,-16.92,35.262,24.72,83,68,2.02,MW,2023-03-05 18:12:40
223,jhang,33.6748,72.6963,19.23,49,0,1.51,PK,2023-03-05 18:12:40
224,alyangula,-13.8483,136.4192,26.89,85,100,8.75,AU,2023-03-05 18:12:40
225,nome,64.5011,-165.4064,-2.96,100,100,9.77,US,2023-03-05 18:12:40
226,bonavista,48.6499,-53.1147,-4.49,79,47,4.05,CA,2023-03-05 18:12:40
227,half moon bay,37.4636,-122.4286,11.28,75,0,6.17,US,2023-03-05 18:12:40
228,padang,-0.9492,100.3543,24.81,87,84,1.68,ID,2023-03-05 18:07:52
229,mahebourg,-20.4081,57.7,25.14,100,75,1.03,MU,2023-03-05 18:11:45
230,bengkulu,-3.8004,102.2655,23.59,91,50,1.38,ID,2023-03-05 18:11:24
231,hasaki,35.7333,140.8333,7.9,62,100,4.67,JP,2023-03-05 18:12:41
232,iqaluit,63.7506,-68.5145,-5.15,92,75,7.6,CA,2023-03-05 18:11:45
233,karatau,43.1667,70.4667,10.32,69,100,2.92,KZ,2023-03-05 18:12:41
234,iranshahr,27.2025,60.6848,24.32,25,0,2.33,IR,2023-03-05 18:12:42
235,severo-kurilsk,50.6789,156.125,-3.12,83,100,3.95,RU,2023-03-05 18:11:49
236,hirara,24.8,125.2833,18.28,52,2,6.26,JP,2023-03-05 18:12:42
237,maragogi,-9.0122,-35.2225,29.24,60,59,5.15,BR,2023-03-05 18:12:42
238,kahului,20.8947,-156.47,24.36,90,0,1.79,US,2023-03-05 18:12:42
239,scarborough,54.2797,-0.4044,4.76,79,100,2.66,GB,2023-03-05 18:09:40
240,rumoi,43.9344,141.6428,2.78,72,5,7.24,JP,2023-03-05 18:12:43
241,bosaso,11.2842,49.1816,25.34,78,0,7.35,SO,2023-03-05 18:12:43
242,hervey bay,-25.2986,152.8535,23.6,70,0,2.64,AU,2023-03-05 18:12:43
243,les herbiers,46.8667,-1.0167,3.84,85,36,3.13,FR,2023-03-05 18:12:43
244,abonnema,4.7084,6.7931,27.93,74,92,3.7,NG,2023-03-05 18:12:43
245,manado,1.487,124.8455,24.43,94,40,0.51,ID,2023-03-05 18:12:43
246,luque,37.558,-4.2797,8.12,90,100,1.81,ES,2023-03-05 18:10:41
247,vostok,46.4856,135.8833,-5.23,89,22,3.38,RU,2023-03-05 18:12:44
248,karabash,55.4808,60.2157,-3.67,94,88,3.32,RU,2023-03-05 18:12:44
249,erenhot,43.6475,111.9767,2.58,27,44,2.94,CN,2023-03-05 18:12:44
250,weirton,40.419,-80.5895,12.16,45,13,3.13,US,2023-03-05 18:12:44
251,binga,-17.6203,27.3414,25.23,73,55,1.78,ZW,2023-03-05 18:12:44
252,kazachinskoye,57.6953,93.2761,-15.04,99,100,1.05,RU,2023-03-05 18:12:45
253,sungai besar,3.6746,100.9867,25.79,79,40,3.48,MY,2023-03-05 18:12:45
254,sudbury,46.49,-80.99,6.54,99,77,2.72,CA,2023-03-05 18:12:45
255,oyama,36.3,139.8,10.33,65,100,1.67,JP,2023-03-05 18:12:45
256,hamilton,39.1834,-84.5333,14.96,48,0,1.79,US,2023-03-05 18:07:45
257,dawei,14.0833,98.2,21.49,60,0,2.19,MM,2023-03-05 18:12:45
258,nalut,30.3333,10.85,13.85,20,73,3.53,LY,2023-03-05 18:12:45
259,bagdarin,54.4333,113.6,-17.75,89,64,1.81,RU,2023-03-05 18:12:46
260,morgan city,29.6994,-91.2068,26.11,50,0,4.63,US,2023-03-05 18:12:46
261,greytown,-29.0642,30.5928,19.11,91,0,0.5,ZA,2023-03-05 18:12:46
262,vila franca do campo,37.7167,-25.4333,16.23,68,12,6.52,PT,2023-03-05 18:11:50
263,san cristobal,7.7669,-72.225,31.1,49,90,3.33,VE,2023-03-05 18:12:46
264,tautira,-17.7333,-149.15,26.3,87,99,5.89,PF,2023-03-05 18:12:46
265,cairns,-16.9167,145.7667,24.48,100,100,3.6,AU,2023-03-05 18:09:17
266,biak,-0.9131,122.8766,24.68,74,100,1.3,ID,2023-03-05 18:12:47
267,murgab,37.4966,61.9714,16.79,47,100,2.74,TM,2023-03-05 18:12:47
268,nuuk,64.1835,-51.7216,1.08,77,80,3.91,GL,2023-03-05 18:12:47
269,umm kaddadah,13.6017,26.6876,27.75,14,0,5.76,SD,2023-03-05 18:12:47
270,terrace,54.5163,-128.6035,-3.05,33,20,5.66,CA,2023-03-05 18:12:47
271,aklavik,68.2191,-135.0107,-31.0,69,0,2.06,CA,2023-03-05 18:12:48
272,codrington,-38.2667,141.9667,14.29,81,27,5.35,AU,2023-03-05 18:12:48
273,sampit,-2.5333,112.95,23.34,99,100,1.15,ID,2023-03-05 18:12:48
274,ostrovnoy,68.0531,39.5131,-12.44,92,100,2.94,RU,2023-03-05 18:12:48
275,roma,43.2128,-75.4557,4.42,84,100,3.6,US,2023-03-05 18:08:43
276,ponta do sol,32.6667,-17.1,20.0,86,83,4.21,PT,2023-03-05 18:11:46
277,les cayes,18.2,-73.75,29.4,49,42,6.68,HT,2023-03-05 18:11:49
278,parabel,58.6978,81.4825,-6.06,96,100,2.54,RU,2023-03-05 18:12:48
279,kavieng,-2.5744,150.7967,27.54,73,100,3.3,PG,2023-03-05 18:12:49
280,fairbanks,64.8378,-147.7164,-18.0,74,40,1.54,US,2023-03-05 18:12:33
281,grand island,40.925,-98.342,11.78,64,0,6.17,US,2023-03-05 18:12:49
282,conakry,9.538,-13.6773,30.04,58,0,6.17,GN,2023-03-05 18:12:49
283,bonthe,7.5264,-12.505,28.71,68,59,4.78,SL,2023-03-05 18:12:49
284,la reforma,25.0833,-108.05,24.26,32,0,3.16,MX,2023-03-05 18:12:50
285,la union,-5.4,-80.75,33.05,42,61,4.35,PE,2023-03-05 18:11:09
286,lorengau,-2.0226,147.2712,26.91,79,80,3.27,PG,2023-03-05 18:12:50
287,jishu,44.3167,126.8,5.36,59,100,5.58,CN,2023-03-05 18:12:50
288,grand-santi,4.25,-54.3833,27.95,79,98,2.24,GF,2023-03-05 18:12:50
289,praia,14.9215,-23.5087,27.3,34,0,8.23,CV,2023-03-05 18:12:50
290,aksu,41.1231,80.2644,8.7,39,5,1.26,CN,2023-03-05 18:12:51
291,emerald,-23.5333,148.1667,19.08,86,1,2.56,AU,2023-03-05 18:12:51
292,atakpame,7.5333,1.1333,29.24,60,95,2.19,TG,2023-03-05 18:12:51
293,shimoda,34.6667,138.95,7.84,86,99,2.95,JP,2023-03-05 18:12:51
294,hofn,64.2539,-15.2082,-1.36,60,80,6.89,IS,2023-03-05 18:12:51
295,ashqelon,31.6693,34.5715,24.94,67,56,8.8,IL,2023-03-05 18:11:14
296,mollendo,-17.0231,-72.0147,23.05,79,95,4.71,PE,2023-03-05 18:12:51
297,tilichiki,60.4667,166.1,-30.12,96,81,1.99,RU,2023-03-05 18:12:52
298,chara,56.9064,118.2631,-18.64,78,92,0.87,RU,2023-03-05 18:12:52
299,marfino,55.7028,37.3822,-2.13,86,100,2.0,RU,2023-03-05 18:12:52
300,varnamo,57.186,14.04,-0.29,49,3,1.34,SE,2023-03-05 18:12:52
301,muros,42.7762,-9.0603,11.58,87,100,1.96,ES,2023-03-05 18:12:52
302,bud,39.447,-86.1758,14.15,57,63,3.02,US,2023-03-05 18:12:53
303,deputatskiy,69.3,139.9,-31.55,100,100,1.14,RU,2023-03-05 18:12:53
304,khadzhalmakhi,42.42,47.1821,8.49,62,71,2.16,RU,2023-03-05 18:12:53
305,banjarmasin,-3.3244,114.591,22.0,97,92,0.78,ID,2023-03-05 18:12:53
306,trail,49.0998,-117.7022,3.71,75,100,1.66,CA,2023-03-05 18:12:53
307,peto,20.1333,-88.9167,34.92,26,46,1.98,MX,2023-03-05 18:12:53
308,katherine,-14.4667,132.2667,25.18,88,75,0.51,AU,2023-03-05 18:12:54
309,ishinomaki,38.4167,141.3,3.16,71,91,1.79,JP,2023-03-05 18:09:23
310,yumen,40.2833,97.2,3.38,41,1,4.22,CN,2023-03-05 18:12:54
311,nanortalik,60.1432,-45.2371,2.15,92,70,1.76,GL,2023-03-05 18:12:54
312,donja dubica,45.075,18.4114,6.26,66,97,1.12,BA,2023-03-05 18:12:54
313,chimbote,-9.0853,-78.5783,25.24,70,100,3.21,PE,2023-03-05 18:12:54
314,provideniya,64.3833,-173.3,0.33,99,100,3.68,RU,2023-03-05 18:12:55
315,susehri,40.1644,38.0867,8.29,75,100,3.38,TR,2023-03-05 18:12:55
316,fredericton,45.9454,-66.6656,3.47,26,0,6.17,CA,2023-03-05 18:12:55
317,megion,61.0296,76.1136,-8.99,98,100,1.99,RU,2023-03-05 18:12:55
318,alta floresta,-9.8756,-56.0861,28.44,80,51,0.76,BR,2023-03-05 18:12:55
319,pachino,36.7186,15.0907,11.76,77,1,8.4,IT,2023-03-05 18:12:55
320,saint george,37.1041,-113.5841,11.33,38,0,6.69,US,2023-03-05 18:12:56
321,itoman,26.1247,127.6694,16.01,57,20,3.09,JP,2023-03-05 18:12:56
322,henties bay,-22.116,14.2845,18.57,79,0,7.49,NA,2023-03-05 18:12:56
323,sakakah,29.9697,40.2064,24.8,20,23,2.63,SA,2023-03-05 18:12:56
324,mayo,38.8876,-76.5119,17.59,38,0,6.69,US,2023-03-05 18:12:56
325,nagua,19.3832,-69.8474,30.17,74,20,6.17,DO,2023-03-05 18:12:56
326,jerecuaro,20.15,-100.5167,26.41,19,100,2.1,MX,2023-03-05 18:12:57
327,mbandaka,0.0487,18.2603,30.24,45,100,2.03,CD,2023-03-05 18:12:57
328,lodja,-3.4833,23.4333,22.7,91,89,0.96,CD,2023-03-05 18:12:57
329,laguna,38.421,-121.4238,10.72,73,75,7.2,US,2023-03-05 18:12:57
330,eenhana,-17.4667,16.3333,26.13,27,1,3.46,NA,2023-03-05 18:12:57
331,tenenkou,14.4572,-4.9169,36.13,8,13,2.31,ML,2023-03-05 18:12:57
332,veraval,20.9,70.3667,26.19,56,8,3.94,IN,2023-03-05 18:12:57
333,rurrenabaque,-14.4413,-67.5278,29.31,77,100,0.64,BO,2023-03-05 18:12:58
334,tolmezzo,46.4075,13.0175,7.45,86,63,0.66,IT,2023-03-05 18:12:58
335,clyde,41.3042,-82.9752,9.54,59,57,2.81,US,2023-03-05 18:11:59
336,jieshi,22.8134,115.8257,14.23,64,0,2.24,CN,2023-03-05 18:11:46
337,asyut,27.181,31.1837,27.13,11,27,2.69,EG,2023-03-05 18:12:58
338,piterka,50.6803,47.4454,-0.46,72,9,6.6,RU,2023-03-05 18:12:58
339,moerai,-22.4333,-151.3333,27.73,83,100,10.17,PF,2023-03-05 18:12:59
340,campbell river,50.0163,-125.2446,5.25,100,75,2.06,CA,2023-03-05 18:12:59
341,kamina,-8.7386,24.9906,19.48,95,97,1.91,CD,2023-03-05 18:12:59
342,nemuro,43.3236,145.575,-1.04,81,2,3.72,JP,2023-03-05 18:12:59
343,shirak,40.8404,43.9158,5.18,65,75,0.51,AM,2023-03-05 18:12:59
344,port hedland,-20.3167,118.5667,29.03,89,10,5.66,AU,2023-03-05 18:12:59
345,bairiki,1.3292,172.9752,27.0,89,40,3.09,KI,2023-03-05 18:13:00
346,kangaatsiaq,68.3065,-53.4641,-5.42,85,87,4.52,GL,2023-03-05 18:13:00
347,washington,47.5001,-120.5015,2.86,79,100,1.82,US,2023-03-05 18:11:02
348,sheridan,44.8333,-106.9173,-1.49,70,100,6.17,US,2023-03-05 18:13:00
349,valentin gomez farias,28.2167,-106.5833,19.72,6,0,1.37,MX,2023-03-05 18:13:00
350,boyolangu,-8.1181,111.8935,23.35,93,100,1.72,ID,2023-03-05 18:13:00
351,balkanabat,39.5108,54.3671,16.48,49,30,2.91,TM,2023-03-05 18:13:01
352,porto santo,33.072,-16.3415,20.21,77,20,6.69,PT,2023-03-05 18:13:01
353,russell,32.3502,-85.1999,24.6,35,0,0.0,US,2023-03-05 18:13:01
354,kudahuvadhoo,2.6708,72.8944,26.96,78,28,3.56,MV,2023-03-05 18:13:01
355,langres,47.8333,5.3333,2.88,76,100,2.07,FR,2023-03-05 18:13:01
356,gurlan,41.8447,60.3919,10.04,53,53,4.88,UZ,2023-03-05 18:13:01
357,seoul,37.5683,126.9778,-0.31,35,0,0.77,KR,2023-03-05 18:10:08
358,college,64.8569,-147.8028,-18.01,73,75,1.54,US,2023-03-05 18:13:02
359,la rioja,42.25,-2.5,7.88,81,66,0.74,ES,2023-03-05 18:13:02
360,ulaangom,49.9811,92.0667,-14.76,84,81,1.11,MN,2023-03-05 18:13:02
361,husavik,66.0449,-17.3389,-4.16,70,100,3.33,IS,2023-03-05 18:13:02
362,lavrentiya,65.5833,-171.0,-1.53,97,100,7.25,RU,2023-03-05 18:13:02
363,pisco,-13.7,-76.2167,25.03,78,0,4.12,PE,2023-03-05 18:13:03
364,alamogordo,32.8995,-105.9603,19.76,19,0,5.14,US,2023-03-05 18:13:03
365,pestovo,58.5938,35.8024,-5.22,96,100,1.43,RU,2023-03-05 18:13:03
366,sheregesh,52.9209,87.9869,-5.08,95,100,1.92,RU,2023-03-05 18:13:03
367,kwinana,-32.25,115.7667,17.87,71,0,0.45,AU,2023-03-05 18:13:03
368,benidorm,38.5382,-0.131,15.99,64,99,4.31,ES,2023-03-05 18:13:03
369,mehamn,71.0357,27.8492,-8.05,79,0,9.26,NO,2023-03-05 18:13:04
370,zhangjiakou,40.81,114.8794,5.97,27,2,2.33,CN,2023-03-05 18:13:04
371,devonport,-41.1667,146.35,16.96,95,100,0.89,AU,2023-03-05 18:10:43
372,eyrarbakki,63.863,-21.1481,2.03,73,100,2.98,IS,2023-03-05 18:13:04
373,tessalit,20.1986,1.0114,28.81,7,100,3.83,ML,2023-03-05 18:13:04
374,geraldton,-28.7667,114.6,20.23,68,0,6.69,AU,2023-03-05 18:13:04
375,gornopravdinsk,60.05,69.9,-5.47,98,100,2.0,RU,2023-03-05 18:13:04
376,lakes entrance,-37.8811,147.981,14.53,91,85,8.29,AU,2023-03-05 18:13:05
377,port macquarie,-31.4333,152.9167,17.16,86,19,6.3,AU,2023-03-05 18:13:05
378,warrington,53.3925,-2.5802,6.92,79,75,4.63,GB,2023-03-05 18:13:05
379,ayame,5.6083,-3.1563,28.76,69,50,3.43,CI,2023-03-05 18:13:05
380,jardim,-21.4803,-56.1381,31.61,59,6,2.59,BR,2023-03-05 18:13:05
381,lagoa,39.05,-27.9833,14.03,65,38,10.71,PT,2023-03-05 18:13:05
382,marsa matruh,31.3525,27.2453,16.59,67,0,8.1,EG,2023-03-05 18:13:06
383,lompoc,34.6391,-120.4579,13.07,84,100,5.14,US,2023-03-05 18:13:06
384,giulianova,42.7612,13.9537,10.55,82,34,1.45,IT,2023-03-05 18:13:06
385,kalmunai,7.4167,81.8167,24.79,86,45,2.92,LK,2023-03-05 18:13:06
386,raudeberg,61.9875,5.1352,-1.19,72,98,6.1,NO,2023-03-05 18:13:06
387,zhuhai,22.2769,113.5678,19.92,77,0,2.57,CN,2023-03-05 18:11:45
388,ano mera,37.45,25.4,14.73,82,40,3.09,GR,2023-03-05 18:13:07
389,tongren,27.7172,109.1853,16.13,59,36,0.86,CN,2023-03-05 18:13:07
390,villazon,-22.0866,-65.5942,19.37,37,85,5.78,BO,2023-03-05 18:13:07
391,te anau,-45.4167,167.7167,6.61,92,8,1.2,NZ,2023-03-05 18:13:07
392,norwich,52.6278,1.2983,4.1,78,20,2.06,GB,2023-03-05 18:12:05
393,isheyevka,54.4167,48.2667,-2.27,84,98,7.98,RU,2023-03-05 18:13:07
394,port augusta,-32.5,137.7667,15.56,82,0,3.85,AU,2023-03-05 18:13:07
395,imbituba,-28.24,-48.6703,25.95,89,62,1.14,BR,2023-03-05 18:13:08
396,san patricio,28.017,-97.5169,27.87,46,0,5.95,US,2023-03-05 18:13:08
397,ust-karsk,52.7011,118.8077,-16.06,96,13,1.35,RU,2023-03-05 18:13:08
398,kenai,60.5544,-151.2583,-12.7,68,0,2.57,US,2023-03-05 18:13:08
399,batagay-alyta,67.8006,130.4114,-20.48,99,100,1.56,RU,2023-03-05 18:13:08
400,amazar,53.858,120.875,-14.01,75,87,2.4,RU,2023-03-05 18:13:09
401,waipawa,-41.4122,175.5153,7.42,94,78,1.22,NZ,2023-03-05 18:13:09
402,svetlyy,54.675,20.1347,1.03,65,96,5.73,RU,2023-03-05 18:13:09
403,loandjili,-4.7561,11.8578,26.72,82,59,4.52,CG,2023-03-05 18:13:09
404,bezhanitsy,56.9767,29.8907,-3.96,97,100,2.21,RU,2023-03-05 18:13:09
405,phuket,8.0,98.25,26.12,78,20,1.54,TH,2023-03-05 18:13:09
406,uige,-7.6087,15.0613,22.72,84,88,0.63,AO,2023-03-05 18:13:09
407,sistranda,63.7256,8.834,-4.02,55,100,7.11,NO,2023-03-05 18:13:10
408,lucea,18.451,-78.1736,28.92,67,7,5.77,JM,2023-03-05 18:13:10
409,bay roberts,47.5999,-53.2648,-0.19,57,30,2.68,CA,2023-03-05 18:13:10
410,merauke,-8.4667,140.3333,23.44,99,100,1.58,ID,2023-03-05 18:13:10
411,mangan,27.5167,88.5333,14.8,78,94,3.97,IN,2023-03-05 18:13:11
412,kongoussi,13.3258,-1.5347,35.33,8,27,3.17,BF,2023-03-05 18:13:11
413,wangkui,46.8333,126.5,-3.28,89,26,3.17,CN,2023-03-05 18:13:11
414,launceston,-41.45,147.1667,15.8,91,100,5.66,AU,2023-03-05 18:11:44
415,fortuna,40.5982,-124.1573,8.14,87,75,3.09,US,2023-03-05 18:11:52
416,borogontsy,62.6683,131.1683,-14.03,96,100,2.98,RU,2023-03-05 18:13:11
417,gravdal,68.1214,13.5031,-5.06,100,40,2.06,NO,2023-03-05 18:13:12
418,new london,41.4834,-72.0662,9.85,55,75,5.66,US,2023-03-05 18:13:12
419,takaka,-40.85,172.8,14.2,87,15,2.3,NZ,2023-03-05 18:13:12
420,havoysund,70.9963,24.6622,-4.87,84,100,5.6,NO,2023-03-05 18:13:12
421,camacha,33.0833,-16.3333,18.68,77,20,6.69,PT,2023-03-05 18:13:12
422,salym,60.0625,71.4789,-6.05,98,100,1.73,RU,2023-03-05 18:13:12
423,paramonga,-10.6667,-77.8333,25.57,68,96,3.65,PE,2023-03-05 18:13:13
424,san luis,-33.295,-66.3356,35.29,20,0,8.01,AR,2023-03-05 18:13:13
425,kupang,-10.1667,123.5833,26.89,78,92,4.67,ID,2023-03-05 18:13:13
426,alakurtti,66.9672,30.3491,-15.29,100,100,0.47,RU,2023-03-05 18:13:13
427,north bend,43.4065,-124.2243,3.84,99,100,4.12,US,2023-03-05 18:13:13
428,toribio,2.9548,-76.2684,20.53,73,96,0.2,CO,2023-03-05 18:13:14
429,soyo,-6.1349,12.3689,27.09,81,67,7.54,AO,2023-03-05 18:11:51
430,sibolga,1.7427,98.7792,23.93,88,98,1.56,ID,2023-03-05 18:13:14
431,petropavlovsk-kamchatskiy,53.0452,158.6483,-12.26,83,91,3.03,RU,2023-03-05 18:08:25
432,florida,28.7505,-82.5001,30.04,71,0,3.6,US,2023-03-05 18:13:14
433,avera,33.194,-82.5271,22.17,41,0,3.35,US,2023-03-05 18:11:47
434,greenwood,34.1668,-82.1165,20.6,35,0,3.6,US,2023-03-05 18:13:14
435,lincoln,40.8,-96.667,13.52,62,0,5.66,US,2023-03-05 18:13:15
436,lensk,60.7253,114.9278,-12.4,88,100,5.4,RU,2023-03-05 18:13:15
437,obo,5.3998,26.4869,28.38,39,90,1.78,CF,2023-03-05 18:13:15
438,anadyr,64.75,177.4833,-25.56,75,100,10.0,RU,2023-03-05 18:13:15
439,coihueco,-36.6167,-71.8333,29.41,20,0,2.57,CL,2023-03-05 18:13:15
440,saint-augustin,51.226,-58.6502,2.34,97,100,8.35,CA,2023-03-05 18:13:15
441,teahupoo,-17.8333,-149.2667,22.98,82,84,9.0,PF,2023-03-05 18:13:15
442,mwinilunga,-11.7358,24.4293,18.7,97,100,1.29,ZM,2023-03-05 18:13:16
443,yeppoon,-23.1333,150.7333,21.88,93,0,1.39,AU,2023-03-05 18:13:16
444,diamantino,-14.4086,-56.4461,32.7,50,64,1.75,BR,2023-03-05 18:13:16
445,akyab,20.15,92.9,24.81,81,0,2.17,MM,2023-03-05 18:13:16
446,shar,49.5886,81.0453,3.85,99,100,8.11,KZ,2023-03-05 18:13:16
447,pechory,57.8164,27.6119,-2.3,98,100,2.14,RU,2023-03-05 18:13:16
448,esperance,-33.8667,121.9,17.33,75,11,6.08,AU,2023-03-05 18:13:17
449,awjilah,29.1081,21.2869,17.64,34,0,5.56,LY,2023-03-05 18:13:17
450,kaya,13.0917,-1.0844,35.23,8,25,3.33,BF,2023-03-05 18:13:17
451,robore,-18.3333,-59.75,33.17,49,55,2.22,BO,2023-03-05 18:13:17
452,asau,46.4333,26.4,0.71,81,39,2.09,RO,2023-03-05 18:13:17
453,sao gabriel da cachoeira,-0.1303,-67.0892,33.17,48,94,0.51,BR,2023-03-05 18:13:18
454,fare,-16.7,-151.0167,28.62,70,100,7.22,PF,2023-03-05 18:13:18
455,rawson,-43.3002,-65.1023,33.48,21,7,7.85,AR,2023-03-05 18:11:49
456,yar-sale,66.8333,70.8333,-29.39,100,57,2.79,RU,2023-03-05 18:13:18
457,vao,-22.6667,167.4833,24.0,73,100,6.57,NC,2023-03-05 18:13:18
458,batyrevo,55.0675,47.6111,-4.29,88,99,6.71,RU,2023-03-05 18:13:19
459,masuguru,-11.3667,38.4167,24.77,77,96,0.63,TZ,2023-03-05 18:13:19
460,saint anthony,45.0205,-93.218,3.96,55,0,5.14,US,2023-03-05 18:13:19
461,elat,29.5581,34.9482,27.03,18,12,2.45,IL,2023-03-05 18:10:21
462,nanakuli,21.3906,-158.1547,21.97,85,75,2.06,US,2023-03-05 18:13:19
463,san quintin,30.4833,-115.95,13.46,62,95,6.83,MX,2023-03-05 18:13:20
464,karlskoga,59.3267,14.5239,-1.38,68,68,3.63,SE,2023-03-05 18:13:20
465,bhayavadar,21.85,70.25,28.38,31,42,2.9,IN,2023-03-05 18:13:20
466,rock sound,24.9,-76.2,25.71,63,1,2.01,BS,2023-03-05 18:13:20
467,san juan,-31.5375,-68.5364,36.27,21,5,5.63,AR,2023-03-05 18:10:30
468,barentu,15.1139,37.5928,29.32,35,4,3.98,ER,2023-03-05 18:13:21
469,ulagan,50.6321,87.9563,-4.56,96,100,1.37,RU,2023-03-05 18:13:21
470,goderich,43.7501,-81.7165,4.39,87,100,2.57,CA,2023-03-05 18:13:21
471,kushima,31.4583,131.2333,9.65,78,8,1.88,JP,2023-03-05 18:13:21
472,eyl,7.9803,49.8164,24.66,81,4,6.38,SO,2023-03-05 18:13:21
473,razole,16.4833,81.8333,21.71,82,1,0.79,IN,2023-03-05 18:13:21
474,torrington,41.8007,-73.1212,9.32,60,60,2.24,US,2023-03-05 18:13:22
475,garowe,8.4054,48.4845,24.75,56,4,8.43,SO,2023-03-05 18:13:22
476,safidon,29.4167,76.6667,19.3,32,0,3.61,IN,2023-03-05 18:13:22
477,gavle,60.6745,17.1417,-3.14,70,100,2.58,SE,2023-03-05 18:13:22
478,marawi,7.9986,124.2928,19.19,98,95,0.82,PH,2023-03-05 18:11:53
479,srednekolymsk,67.45,153.6833,-43.37,100,56,1.98,RU,2023-03-05 18:11:51
480,bac lieu,9.285,105.7244,23.3,70,70,4.78,VN,2023-03-05 18:13:22
481,abensberg,48.8167,11.85,2.75,81,100,2.04,DE,2023-03-05 18:13:23
482,paka,4.6374,103.4368,22.43,94,100,1.07,MY,2023-03-05 18:13:23
483,mayor pablo lagerenza,-19.9309,-60.7718,35.46,38,87,3.26,PY,2023-03-05 18:11:47
484,kanigoro,-8.13,112.219,22.38,92,100,1.28,ID,2023-03-05 18:13:23
485,eureka,40.8021,-124.1637,8.29,82,96,2.24,US,2023-03-05 18:13:23
486,olavarria,-36.8927,-60.3225,35.45,26,0,4.79,AR,2023-03-05 18:13:23
487,basco,20.4487,121.9702,21.24,73,47,9.35,PH,2023-03-05 18:13:23
488,iroquois,40.7506,-87.8334,9.41,71,98,2.24,US,2023-03-05 18:13:24
489,batagay,67.6333,134.6333,-23.83,100,100,0.36,RU,2023-03-05 18:13:24
490,harper,4.375,-7.7169,28.38,76,54,4.35,LR,2023-03-05 18:10:40
491,cam ranh,11.9214,109.1591,21.98,73,20,3.6,VN,2023-03-05 18:13:24
492,doha,25.2867,51.5333,25.99,27,0,2.57,QA,2023-03-05 18:09:54
493,jihlava,49.3961,15.5912,1.33,83,100,4.88,CZ,2023-03-05 18:06:35
494,bowen,-20.0167,148.2333,21.32,91,25,2.07,AU,2023-03-05 18:13:24
495,colac,-38.3333,143.5833,13.98,84,78,6.17,AU,2023-03-05 18:13:25
496,kruisfontein,-34.0033,24.7314,19.94,89,67,8.11,ZA,2023-03-05 18:13:25
497,natal,-5.795,-35.2094,29.36,70,75,7.2,BR,2023-03-05 18:14:38
498,evensk,61.95,159.2333,-29.45,82,57,4.15,RU,2023-03-05 18:13:25
499,turukhansk,65.8167,87.9833,-20.47,99,99,2.53,RU,2023-03-05 18:13:25
500,havelock,34.8791,-76.9013,18.99,43,0,3.09,US,2023-03-05 18:13:25
501,nushki,29.5542,66.0215,20.06,32,37,1.19,PK,2023-03-05 18:13:25
502,belaya gora,68.5333,146.4167,-38.98,99,99,0.97,RU,2023-03-05 18:13:26
503,carmen,18.6333,-91.8333,30.02,58,0,0.0,MX,2023-03-05 18:13:26
504,farafangana,-22.8167,47.8333,23.79,94,97,1.22,MG,2023-03-05 18:13:26
505,churapcha,62.0025,132.4325,-18.68,100,98,2.38,RU,2023-03-05 18:13:26
506,sept-iles,50.2001,-66.3821,-2.19,51,100,5.66,CA,2023-03-05 18:13:26
507,takhtamygda,54.1,123.5667,-9.74,95,100,2.37,RU,2023-03-05 18:13:27
508,necocli,8.4234,-76.786,26.39,84,71,7.43,CO,2023-03-05 18:13:27
509,jaciara,-15.9653,-54.9683,32.99,51,29,0.81,BR,2023-03-05 18:13:27
510,sao jose da coroa grande,-8.8978,-35.1478,29.28,60,72,4.83,BR,2023-03-05 18:13:27
511,cayenne,4.9333,-52.3333,29.02,74,75,7.2,GF,2023-03-05 18:13:27
512,alofi,-19.0595,-169.9187,27.72,78,100,7.45,NU,2023-03-05 18:13:27
513,maxixe,-23.8597,35.3472,26.9,78,20,1.52,MZ,2023-03-05 18:13:27
514,ayr,55.4627,-4.6339,6.1,87,20,3.6,GB,2023-03-05 18:13:28
515,benghazi,32.1167,20.0667,15.86,61,6,7.67,LY,2023-03-05 18:10:36
516,cervo,43.6702,-7.4101,11.09,75,7,5.03,ES,2023-03-05 18:13:28
517,eresos,39.1667,25.9333,8.27,75,100,2.02,GR,2023-03-05 18:13:28
518,tual,-5.6667,132.75,27.32,79,100,8.69,ID,2023-03-05 18:13:28
519,cancun,21.1743,-86.8466,28.96,58,40,6.17,MX,2023-03-05 18:11:50
520,pokoynoye,44.8097,44.2517,7.74,72,68,1.02,RU,2023-03-05 18:13:28
521,ialibu,-6.2821,143.9935,11.87,97,100,1.35,PG,2023-03-05 18:12:04
522,nicoya,10.1483,-85.452,35.33,34,57,8.89,CR,2023-03-05 18:13:29
523,miyako,39.6367,141.9525,2.13,63,26,1.85,JP,2023-03-05 18:13:29
524,plettenberg bay,-34.0527,23.3716,19.33,88,97,6.4,ZA,2023-03-05 18:13:29
525,naron,43.5167,-8.1528,12.72,75,21,0.87,ES,2023-03-05 18:09:43
526,gidam,18.9833,81.4,21.13,24,0,0.39,IN,2023-03-05 18:13:29
527,carauari,-4.8828,-66.8958,23.56,98,100,1.21,BR,2023-03-05 18:13:29
528,batesville,35.7698,-91.641,18.93,60,6,2.24,US,2023-03-05 18:13:30
529,ust-koksa,50.2696,85.6108,0.9,94,100,6.09,RU,2023-03-05 18:13:30
530,mont-de-marsan,44.0,-0.6667,10.9,66,0,1.03,FR,2023-03-05 18:13:30
531,nikki,9.9401,3.2108,35.35,22,76,0.58,BJ,2023-03-05 18:13:30
532,ilebo,-4.3167,20.5833,27.02,65,73,0.79,CD,2023-03-05 18:13:30
533,paamiut,61.994,-49.6678,2.06,77,78,1.31,GL,2023-03-05 18:13:31
534,jalu,29.0331,21.5482,17.75,33,0,4.87,LY,2023-03-05 18:13:31
535,ilo,-17.6394,-71.3375,24.22,73,81,2.95,PE,2023-03-05 18:11:46
536,jacareacanga,-6.2222,-57.7528,30.93,65,64,1.48,BR,2023-03-05 18:13:31
537,kushmurun,52.4503,64.6311,-4.72,90,36,6.53,KZ,2023-03-05 18:13:31
538,caravelas,-17.7125,-39.2481,28.76,57,73,3.79,BR,2023-03-05 18:13:31
539,alappuzha,9.49,76.3264,26.99,72,58,0.99,IN,2023-03-05 18:13:32
540,tyumentsevo,53.3224,81.498,-3.53,98,100,1.48,RU,2023-03-05 18:13:32
541,dauriya,49.9333,116.8667,-7.87,94,99,1.55,RU,2023-03-05 18:13:32
542,athni,16.7333,75.0667,27.03,23,3,4.43,IN,2023-03-05 18:13:32
543,suoyarvi,62.0833,32.35,-9.01,95,100,2.69,RU,2023-03-05 18:13:32
544,tarauaca,-8.1614,-70.7656,23.58,99,100,1.1,BR,2023-03-05 18:13:33
545,mossendjo,-2.9506,12.7261,23.08,95,83,0.33,CG,2023-03-05 18:13:33
546,gat,31.61,34.7642,26.33,38,67,5.01,IL,2023-03-05 18:13:33
547,chupa,66.27,33.0549,-17.27,100,98,1.16,RU,2023-03-05 18:13:33
548,north adams,42.7009,-73.1087,4.13,79,100,3.6,US,2023-03-05 18:13:33
549,tecoanapa,16.5167,-98.75,27.75,68,97,4.07,MX,2023-03-05 18:13:33
550,opuwo,-18.0607,13.84,23.86,28,2,6.17,NA,2023-03-05 18:13:33
551,porto belo,-27.1578,-48.5531,28.71,81,49,5.04,BR,2023-03-05 18:13:34
552,namatanai,-3.6667,152.4333,26.01,82,99,2.79,PG,2023-03-05 18:13:34
553,yulara,-25.2406,130.9889,24.08,40,3,7.31,AU,2023-03-05 18:11:34
554,chifeng,42.2683,118.9636,4.34,38,35,3.09,CN,2023-03-05 18:13:34
555,nioro,13.35,-15.75,38.46,11,60,1.77,GM,2023-03-05 18:13:34
556,ugoofaaru,5.6667,73.0,27.42,78,100,6.3,MV,2023-03-05 18:13:34
557,bubaque,11.2833,-15.8333,24.91,65,30,5.87,GW,2023-03-05 18:13:34
558,ngorongoro,-3.2397,35.4875,13.84,52,97,0.87,TZ,2023-03-05 18:13:35
559,outjo,-20.1167,16.15,24.16,22,0,6.39,NA,2023-03-05 18:13:35
